[{"activityType": "Ride", "athleteId": 32871227, "closestDistance": 0.0, "closestPoint": {"point": {"lat": 47.087624, "lng": 15.418789}, "time": 1537708302.0}, "correlation": 0.0, "distance": 31829.2, "elapsedTime": 16143.0, "id": 1860625625, "name": "Radfahrt am Morgen", "spatialCorrelation": 0.0, "startTime": 1537692602},
{"activityType": "Ride", "athleteId": 33542767, "closestDistance": 0.0, "closestPoint": {"point": {"lat": 47.134686, "lng": 15.317514}, "time": 1537709856.0}, "correlation": 0.0, "distance": 71160.9, "elapsedTime": 7871.0, "id": 1860756477, "name": "Fahrt am Nachmittag", "spatialCorrelation": 0.0, "startTime": 1537702473},
{"activityType": "Ride", "athleteId": 15271242, "closestDistance": 0.0, "closestPoint": {"point": {"lat": 47.178925, "lng": 15.31645}, "time": 1537710680.0}, "correlation": 0.0, "distance": 91562.4, "elapsedTime": 14127.0, "id": 1860905177, "name": "Fahrt am Nachmittag", "spatialCorrelation": 0.0, "startTime": 1537700686},
{"activityType": "Ride", "athleteId": 25412584, "closestDistance": 0.0, "closestPoint": {"point": {"lat": 47.17786, "lng": 15.312106}, "time": 1537710725.0}, "correlation": 0.0, "distance": 92580.4, "elapsedTime": 14251.0, "id": 1860950038, "name": "Mittagsradfahrt", "spatialCorrelation": 0.0, "startTime": 1537699923},
{"activityType": "Ride", "athleteId": 15906895, "closestDistance": 0.0, "closestPoint": {"point": {"lat": 47.11767, "lng": 15.356402}, "time": 1537717308.0}, "correlation": 0.0, "distance": 19774.2, "elapsedTime": 3382.0, "id": 1861028930, "name": "Radfahrt am Nachmittag", "spatialCorrelation": 0.0, "startTime": 1537714447},
{"activityType": "Ride", "athleteId": 18671866, "closestDistance": 0.0, "closestPoint": {"point": {"lat": 47.174774, "lng": 15.323388}, "time": 1537710367.0}, "correlation": 0.0, "distance": 96457.0, "elapsedTime": 21767.0, "id": 1861466835, "name": "10 vor Graz", "spatialCorrelation": 0.0, "startTime": 1537702072},
{"activityType": "Ride", "athleteId": 1202065, "closestDistance": 0.0, "closestPoint": {"point": {"lat": 47.083733, "lng": 15.437516}, "time": 1537707924.0}, "correlation": 0.0, "distance": 78450.7, "elapsedTime": 10988.0, "id": 1861083433, "name": "Afternoon Ride", "spatialCorrelation": 0.0, "startTime": 1537707900},
{"activityType": "Ride", "athleteId": 1202065, "closestDistance": 0.0, "closestPoint": {"point": {"lat": 0.0, "lng": 0.0}, "time": 0.0}, "correlation": 1.0, "distance": 78450.7, "elapsedTime": 10988.0, "id": 1861083433, "name": "Afternoon Ride", "spatialCorrelation": 1.0, "startTime": 1537707900}]