[{"activityType": "Ride", "athleteId": 6256427, "closestDistance": 0.0, "closestPoint": {"point": {"lat": 45.81868, "lng": 8.823973}, "time": 1535866211.0}, "correlation": 0.0, "distance": 1030.9, "elapsedTime": 1349.0, "id": 1813214134, "name": "Morning Ride", "spatialCorrelation": 0.0, "startTime": 1535864748},
{"activityType": "Ride", "athleteId": 1881981, "closestDistance": 0.0, "closestPoint": {"point": {"lat": 45.81868, "lng": 8.823973}, "time": 1535866211.0}, "correlation": 0.0, "distance": 3182.6, "elapsedTime": 864.0, "id": 1813216125, "name": "Ride to Gran Fondo World Champs ", "spatialCorrelation": 0.0, "startTime": 1535865574},
{"activityType": "Ride", "athleteId": 793578, "closestDistance": 0.0, "closestPoint": {"point": {"lat": 45.8254, "lng": 8.82448}, "time": 1535866324.0}, "correlation": 0.0, "distance": 13501.2, "elapsedTime": 2155.0, "id": 1813217100, "name": "Warm Up", "spatialCorrelation": 0.0, "startTime": 1535864186},
{"activityType": "Ride", "athleteId": 3126463, "closestDistance": 0.0, "closestPoint": {"point": {"lat": 45.81868, "lng": 8.823973}, "time": 1535866211.0}, "correlation": 0.0, "distance": 5600.2, "elapsedTime": 1388.0, "id": 1813217493, "name": "Ride to start", "spatialCorrelation": 0.0, "startTime": 1535865029},
{"activityType": "Ride", "athleteId": 174391, "closestDistance": 0.0, "closestPoint": {"point": {"lat": 45.81868, "lng": 8.823973}, "time": 1535866211.0}, "correlation": 0.0, "distance": 2211.7, "elapsedTime": 1650.0, "id": 1813222277, "name": "Morning Ride", "spatialCorrelation": 0.0, "startTime": 1535864805},
{"activityType": "Ride", "athleteId": 11122715, "closestDistance": 0.0, "closestPoint": {"point": {"lat": 45.8254, "lng": 8.82448}, "time": 1535866324.0}, "correlation": 0.0, "distance": 5913.8, "elapsedTime": 1184.0, "id": 1813224089, "name": "Morning Ride Warm up with too many cyclist very scary", "spatialCorrelation": 0.0, "startTime": 1535865240},
{"activityType": "Ride", "athleteId": 1012700, "closestDistance": 0.0, "closestPoint": {"point": {"lat": 45.81868, "lng": 8.823973}, "time": 1535866211.0}, "correlation": 0.0, "distance": 1166.5, "elapsedTime": 1052.0, "id": 1813224665, "name": "Morning Ride", "spatialCorrelation": 0.0, "startTime": 1535866119},
{"activityType": "Ride", "athleteId": 442769, "closestDistance": 0.0, "closestPoint": {"point": {"lat": 45.81822, "lng": 8.825156}, "time": 1535866225.0}, "correlation": 0.0, "distance": 5316.3, "elapsedTime": 2132.0, "id": 1813226515, "name": "Til starten af UCI Gran Fondo World CS. Forts\u00e6ttelse f\u00f8lger n\u00e5r jeg kommer hjem og min Garmin kommer ud af bagagerummet\ud83d\ude09", "spatialCorrelation": 0.0, "startTime": 1535865254},
{"activityType": "Ride", "athleteId": 851373, "closestDistance": 0.0, "closestPoint": {"point": {"lat": 45.81868, "lng": 8.823973}, "time": 1535866211.0}, "correlation": 0.0, "distance": 3924.7, "elapsedTime": 2082.0, "id": 1813226525, "name": "Morning Ride", "spatialCorrelation": 0.0, "startTime": 1535865460},
{"activityType": "Ride", "athleteId": 133928, "closestDistance": 0.0, "closestPoint": {"point": {"lat": 45.82878, "lng": 8.823714}, "time": 1535866366.0}, "correlation": 0.0, "distance": 7151.8, "elapsedTime": 2729.0, "id": 1813228024, "name": "Warm Up", "spatialCorrelation": 0.0, "startTime": 1535864951},
{"activityType": "Ride", "athleteId": 1807781, "closestDistance": 0.0, "closestPoint": {"point": {"lat": 45.81822, "lng": 8.825156}, "time": 1535866225.0}, "correlation": 0.0, "distance": 10402.8, "elapsedTime": 4206.0, "id": 1813255786, "name": "02-09 Infietsen WK weg Varese", "spatialCorrelation": 0.0, "startTime": 1535865542},
{"activityType": "Ride", "athleteId": 1871220, "closestDistance": 0.0, "closestPoint": {"point": {"lat": 45.81822, "lng": 8.825156}, "time": 1535866225.0}, "correlation": 0.0, "distance": 43498.7, "elapsedTime": 11202.0, "id": 1813316911, "name": "Morning Ride", "spatialCorrelation": 0.0, "startTime": 1535862027},
{"activityType": "Ride", "athleteId": 5817311, "closestDistance": 0.0, "closestPoint": {"point": {"lat": 45.94069, "lng": 8.8898}, "time": 1535869398.0}, "correlation": 0.0, "distance": 73486.2, "elapsedTime": 9190.0, "id": 1813366168, "name": "un pezzo nella GF World Series UCI e poi...a lavorare!!", "spatialCorrelation": 0.0, "startTime": 1535865972},
{"activityType": "Ride", "athleteId": 5270601, "closestDistance": 0.0, "closestPoint": {"point": {"lat": 45.94777, "lng": 8.815357}, "time": 1535870782.0}, "correlation": 0.0, "distance": 55824.3, "elapsedTime": 10150.0, "id": 1813390800, "name": "Giro di merda", "spatialCorrelation": 0.0, "startTime": 1535865775},
{"activityType": "Ride", "athleteId": 9762331, "closestDistance": 0.0, "closestPoint": {"point": {"lat": 45.90877, "lng": 8.82854}, "time": 1535867353.0}, "correlation": 0.0, "distance": 9485.3, "elapsedTime": 4976.0, "id": 1813397113, "name": "\ud83c\uddec\ud83c\udde7Cheering him on , en route \ud83c\uddec\ud83c\udde7\ud83d\udc4f\ud83c\udffb", "spatialCorrelation": 0.0, "startTime": 1535866571},
{"activityType": "Ride", "athleteId": 8629175, "closestDistance": 0.0, "closestPoint": {"point": {"lat": 45.90231, "lng": 8.825626}, "time": 1535867274.0}, "correlation": 0.0, "distance": 45894.8, "elapsedTime": 12642.0, "id": 1813435865, "name": "Giro mattutino", "spatialCorrelation": 0.0, "startTime": 1535864645},
{"activityType": "Ride", "athleteId": 311899, "closestDistance": 0.0, "closestPoint": {"point": {"lat": 45.949512, "lng": 8.88708}, "time": 1535869705.0}, "correlation": 0.0, "distance": 83893.4, "elapsedTime": 12314.0, "id": 1813439652, "name": "\ud83d\udc63\ud83d\udc63\ud83d\udc0e\ud83d\udc0e\ud83c\uddf5\ud83c\uddf9\ud83c\uddf5\ud83c\uddf9", "spatialCorrelation": 0.0, "startTime": 1535864693},
{"activityType": "Ride", "athleteId": 5269924, "closestDistance": 0.0, "closestPoint": {"point": {"lat": 45.94777, "lng": 8.815357}, "time": 1535870782.0}, "correlation": 0.0, "distance": 64670.7, "elapsedTime": 11606.0, "id": 1813474980, "name": "02118 - Marchirolo-Malcantone", "spatialCorrelation": 0.0, "startTime": 1535866722},
{"activityType": "Ride", "athleteId": 7477215, "closestDistance": 0.0, "closestPoint": {"point": {"lat": 45.874264, "lng": 8.634719}, "time": 1535877018.0}, "correlation": 0.0, "distance": 5397.2, "elapsedTime": 2480.0, "id": 1813486162, "name": "Giro mattutino", "spatialCorrelation": 0.0, "startTime": 1535875919},
{"activityType": "Ride", "athleteId": 13733861, "closestDistance": 0.0, "closestPoint": {"point": {"lat": 45.884705, "lng": 8.709176}, "time": 1535876341.0}, "correlation": 0.0, "distance": 32386.9, "elapsedTime": 7765.0, "id": 1813488699, "name": "Giro mattutino", "spatialCorrelation": 0.0, "startTime": 1535870941},
{"activityType": "Ride", "athleteId": 1501859, "closestDistance": 0.0, "closestPoint": {"point": {"lat": 45.82468, "lng": 8.651779}, "time": 1535877576.0}, "correlation": 0.0, "distance": 34415.2, "elapsedTime": 4602.0, "id": 1813510319, "name": "Morning Ride", "spatialCorrelation": 0.0, "startTime": 1535874560},
{"activityType": "Ride", "athleteId": 13780229, "closestDistance": 0.0, "closestPoint": {"point": {"lat": 45.94069, "lng": 8.8898}, "time": 1535869398.0}, "correlation": 0.0, "distance": 51917.2, "elapsedTime": 11328.0, "id": 1813526104, "name": "Giro mattutino", "spatialCorrelation": 0.0, "startTime": 1535867806},
{"activityType": "Ride", "athleteId": 2535840, "closestDistance": 0.0, "closestPoint": {"point": {"lat": 45.817554, "lng": 8.812578}, "time": 1535879182.0}, "correlation": 0.0, "distance": 27347.7, "elapsedTime": 11765.0, "id": 1813528095, "name": "Naar de UCI gran fondo WK. ", "spatialCorrelation": 0.0, "startTime": 1535867572},
{"activityType": "Ride", "athleteId": 25760955, "closestDistance": 0.0, "closestPoint": {"point": {"lat": 45.950226, "lng": 8.842526}, "time": 1535870418.0}, "correlation": 0.0, "distance": 55100.7, "elapsedTime": 9554.0, "id": 1813539817, "name": "Sulle strade del mondiale ", "spatialCorrelation": 0.0, "startTime": 1535870061},
{"activityType": "Ride", "athleteId": 1986631, "closestDistance": 0.0, "closestPoint": {"point": {"lat": 45.841038, "lng": 8.708376}, "time": 1535878152.0}, "correlation": 0.0, "distance": 27998.7, "elapsedTime": 5379.0, "id": 1813541080, "name": "Giro mattutino", "spatialCorrelation": 0.0, "startTime": 1535874466},
{"activityType": "Ride", "athleteId": 12124801, "closestDistance": 0.0, "closestPoint": {"point": {"lat": 45.81874, "lng": 8.824025}, "time": 1535879275.0}, "correlation": 0.0, "distance": 41788.6, "elapsedTime": 8526.0, "id": 1813554940, "name": "Cycling all around Varese with hired bike! ", "spatialCorrelation": 0.0, "startTime": 1535871543},
{"activityType": "Ride", "athleteId": 5997812, "closestDistance": 0.0, "closestPoint": {"point": {"lat": 45.898926, "lng": 8.831483}, "time": 1535867042.0}, "correlation": 0.0, "distance": 36693.3, "elapsedTime": 14012.0, "id": 1813564343, "name": "Support bufeciarz ", "spatialCorrelation": 0.0, "startTime": 1535864534},
{"activityType": "Ride", "athleteId": 18744281, "closestDistance": 0.0, "closestPoint": {"point": {"lat": 45.822662, "lng": 8.746256}, "time": 1535878313.0}, "correlation": 0.0, "distance": 37525.7, "elapsedTime": 8698.0, "id": 1813575126, "name": "Su e gi\u00f9 per vedere i passaggi del mondiale gran fondo .", "spatialCorrelation": 0.0, "startTime": 1535871498},
{"activityType": "Ride", "athleteId": 4701600, "closestDistance": 0.0, "closestPoint": {"point": {"lat": 45.910294, "lng": 8.78047}, "time": 1535874946.0}, "correlation": 0.0, "distance": 42234.9, "elapsedTime": 9042.0, "id": 1813586088, "name": "Giretto mattutino a vedere il mondiale G.F.", "spatialCorrelation": 0.0, "startTime": 1535870972},
{"activityType": "Ride", "athleteId": 28255370, "closestDistance": 0.0, "closestPoint": {"point": {"lat": 45.94926, "lng": 8.886942}, "time": 1535869304.0}, "correlation": 0.0, "distance": 58735.0, "elapsedTime": 13520.0, "id": 1813593246, "name": "Giro mattutino", "spatialCorrelation": 0.0, "startTime": 1535866932},
{"activityType": "Ride", "athleteId": 6829803, "closestDistance": 0.0, "closestPoint": {"point": {"lat": 45.819466, "lng": 8.825166}, "time": 1535879159.0}, "correlation": 0.0, "distance": 47378.3, "elapsedTime": 15666.0, "id": 1813598719, "name": "A vedere quelli veri", "spatialCorrelation": 0.0, "startTime": 1535865283},
{"activityType": "Ride", "athleteId": 23731499, "closestDistance": 0.0, "closestPoint": {"point": {"lat": 45.827232, "lng": 8.6787}, "time": 1535877671.0}, "correlation": 0.0, "distance": 62673.9, "elapsedTime": 10298.0, "id": 1813601104, "name": "UCI", "spatialCorrelation": 0.0, "startTime": 1535870866},
{"activityType": "Ride", "athleteId": 2601044, "closestDistance": 0.0, "closestPoint": {"point": {"lat": 45.891296, "lng": 8.755555}, "time": 1535875820.0}, "correlation": 0.0, "distance": 88995.6, "elapsedTime": 17350.0, "id": 1813606802, "name": "Sortie en mode alone et tranquillou sur des routes autour du parcours des Championnats du Monde pour aller voir les \"gar\u00e7ons\" courir", "spatialCorrelation": 0.0, "startTime": 1535863691},
{"activityType": "Ride", "athleteId": 6094709, "closestDistance": 0.0, "closestPoint": {"point": {"lat": 45.904785, "lng": 8.782254}, "time": 1535875192.0}, "correlation": 0.0, "distance": 63691.5, "elapsedTime": 11585.0, "id": 1813612630, "name": "Corsa mattutina", "spatialCorrelation": 0.0, "startTime": 1535869005},
{"activityType": "Ride", "athleteId": 4202328, "closestDistance": 0.0, "closestPoint": {"point": {"lat": 45.81823, "lng": 8.825448}, "time": 1535879387.0}, "correlation": 0.0, "distance": 62047.7, "elapsedTime": 11201.0, "id": 1813618705, "name": "Giro mattutino", "spatialCorrelation": 0.0, "startTime": 1535869335},
{"activityType": "Ride", "athleteId": 16115182, "closestDistance": 0.0, "closestPoint": {"point": {"lat": 45.88479, "lng": 8.698357}, "time": 1535876193.0}, "correlation": 0.0, "distance": 70716.6, "elapsedTime": 9728.0, "id": 1813619064, "name": "Giro mattutino", "spatialCorrelation": 0.0, "startTime": 1535871571},
{"activityType": "Ride", "athleteId": 28363452, "closestDistance": 0.0, "closestPoint": {"point": {"lat": 45.834206, "lng": 8.731635}, "time": 1535878195.0}, "correlation": 0.0, "distance": 80486.9, "elapsedTime": 13740.0, "id": 1813624031, "name": "Giro mattutino", "spatialCorrelation": 0.0, "startTime": 1535867721},
{"activityType": "Ride", "athleteId": 1827123, "closestDistance": 0.0, "closestPoint": {"point": {"lat": 45.819065, "lng": 8.82271}, "time": 1535866235.0}, "correlation": 0.0, "distance": 8829.8, "elapsedTime": 2534.0, "id": 1813635432, "name": "2.9.18 Wrmp to Race", "spatialCorrelation": 0.0, "startTime": 1535863743},
{"activityType": "Ride", "athleteId": 2330403, "closestDistance": 0.0, "closestPoint": {"point": {"lat": 45.840057, "lng": 8.71668}, "time": 1535878152.0}, "correlation": 0.0, "distance": 45853.7, "elapsedTime": 12463.0, "id": 1813642789, "name": "Giro mattutino", "spatialCorrelation": 0.0, "startTime": 1535868971},
{"activityType": "Ride", "athleteId": 8190812, "closestDistance": 0.0, "closestPoint": {"point": {"lat": 45.8187, "lng": 8.823702}, "time": 1535866255.0}, "correlation": 0.0, "distance": 1395.0, "elapsedTime": 2299.0, "id": 1813646547, "name": "Morning Ride", "spatialCorrelation": 0.0, "startTime": 1535863966},
{"activityType": "Ride", "athleteId": 1423981, "closestDistance": 0.0, "closestPoint": {"point": {"lat": 45.907677, "lng": 8.778895}, "time": 1535875024.0}, "correlation": 0.0, "distance": 75704.5, "elapsedTime": 12685.0, "id": 1813648176, "name": "Morning Ride", "spatialCorrelation": 0.0, "startTime": 1535869123},
{"activityType": "Ride", "athleteId": 17000706, "closestDistance": 0.0, "closestPoint": {"point": {"lat": 45.883064, "lng": 8.71972}, "time": 1535876337.0}, "correlation": 0.0, "distance": 31398.1, "elapsedTime": 12348.0, "id": 1813653284, "name": "sentiero 10", "spatialCorrelation": 0.0, "startTime": 1535869706},
{"activityType": "Ride", "athleteId": 15446450, "closestDistance": 0.0, "closestPoint": {"point": {"lat": 45.931732, "lng": 8.887996}, "time": 1535869078.0}, "correlation": 0.0, "distance": 60020.0, "elapsedTime": 13790.0, "id": 1813654280, "name": "Giro mattutino", "spatialCorrelation": 0.0, "startTime": 1535867466},
{"activityType": "Ride", "athleteId": 25553617, "closestDistance": 0.0, "closestPoint": {"point": {"lat": 45.94729, "lng": 8.880629}, "time": 1535869445.0}, "correlation": 0.0, "distance": 67128.7, "elapsedTime": 16936.0, "id": 1813654983, "name": "Giro mattutino", "spatialCorrelation": 0.0, "startTime": 1535865044},
{"activityType": "Ride", "athleteId": 17961453, "closestDistance": 0.0, "closestPoint": {"point": {"lat": 45.883068, "lng": 8.719633}, "time": 1535876340.0}, "correlation": 0.0, "distance": 32806.4, "elapsedTime": 12175.0, "id": 1813659205, "name": "Percorso 10 campo dei fiori", "spatialCorrelation": 0.0, "startTime": 1535869978},
{"activityType": "Ride", "athleteId": 4397641, "closestDistance": 0.0, "closestPoint": {"point": {"lat": 45.884804, "lng": 8.698283}, "time": 1535876192.0}, "correlation": 0.0, "distance": 76372.5, "elapsedTime": 10723.0, "id": 1813663763, "name": "Giro mattutino", "spatialCorrelation": 0.0, "startTime": 1535871383},
{"activityType": "Ride", "athleteId": 14612853, "closestDistance": 0.0, "closestPoint": {"point": {"lat": 45.969395, "lng": 8.733575}, "time": 1535873863.0}, "correlation": 0.0, "distance": 63483.9, "elapsedTime": 12115.0, "id": 1813663831, "name": "Giro mattutino", "spatialCorrelation": 0.0, "startTime": 1535870014},
{"activityType": "Ride", "athleteId": 7092414, "closestDistance": 0.0, "closestPoint": {"point": {"lat": 45.81894, "lng": 8.823336}, "time": 1535879160.0}, "correlation": 0.0, "distance": 91313.2, "elapsedTime": 12646.0, "id": 1813668028, "name": "Giro mattutino", "spatialCorrelation": 0.0, "startTime": 1535869456},
{"activityType": "Ride", "athleteId": 32073182, "closestDistance": 0.0, "closestPoint": {"point": {"lat": 45.82811, "lng": 8.64719}, "time": 1535877697.0}, "correlation": 0.0, "distance": 57992.2, "elapsedTime": 8407.0, "id": 1813671268, "name": "Giro mattutino", "spatialCorrelation": 0.0, "startTime": 1535873342},
{"activityType": "Ride", "athleteId": 12647838, "closestDistance": 0.0, "closestPoint": {"point": {"lat": 45.81491, "lng": 8.827675}, "time": 1535879407.0}, "correlation": 0.0, "distance": 130429.0, "elapsedTime": 15991.0, "id": 1813672353, "name": "San Carlone in solitaria passando per Laveno", "spatialCorrelation": 0.0, "startTime": 1535866232},
{"activityType": "Ride", "athleteId": 12085904, "closestDistance": 0.0, "closestPoint": {"point": {"lat": 45.816414, "lng": 8.827778}, "time": 1535879436.0}, "correlation": 0.0, "distance": 54150.1, "elapsedTime": 12980.0, "id": 1813673302, "name": "Giro mattutino", "spatialCorrelation": 0.0, "startTime": 1535868204},
{"activityType": "Ride", "athleteId": 8751711, "closestDistance": 0.0, "closestPoint": {"point": {"lat": 45.81608, "lng": 8.828513}, "time": 1535879403.0}, "correlation": 0.0, "distance": 60620.8, "elapsedTime": 13801.0, "id": 1813674398, "name": "Giro mattutino", "spatialCorrelation": 0.0, "startTime": 1535867824},
{"activityType": "Ride", "athleteId": 11218068, "closestDistance": 0.0, "closestPoint": {"point": {"lat": 45.81608, "lng": 8.828513}, "time": 1535879403.0}, "correlation": 0.0, "distance": 60804.4, "elapsedTime": 13801.0, "id": 1813674472, "name": "Giro mattutino", "spatialCorrelation": 0.0, "startTime": 1535867824},
{"activityType": "Ride", "athleteId": 368979, "closestDistance": 0.0, "closestPoint": {"point": {"lat": 45.884743, "lng": 8.698411}, "time": 1535876174.0}, "correlation": 0.0, "distance": 77399.5, "elapsedTime": 10801.0, "id": 1813678307, "name": "Giro mattutino", "spatialCorrelation": 0.0, "startTime": 1535871446},
{"activityType": "Ride", "athleteId": 12150268, "closestDistance": 0.0, "closestPoint": {"point": {"lat": 45.931126, "lng": 8.78717}, "time": 1535874672.0}, "correlation": 0.0, "distance": 38932.9, "elapsedTime": 7874.0, "id": 1813681304, "name": "Guardando la GF mondiale", "spatialCorrelation": 0.0, "startTime": 1535874670},
{"activityType": "Ride", "athleteId": 31117718, "closestDistance": 0.0, "closestPoint": {"point": {"lat": 45.914726, "lng": 8.772794}, "time": 1535874894.0}, "correlation": 0.0, "distance": 80739.8, "elapsedTime": 14787.0, "id": 1813685563, "name": "Giro mattutino", "spatialCorrelation": 0.0, "startTime": 1535867661},
{"activityType": "Ride", "athleteId": 4992427, "closestDistance": 0.0, "closestPoint": {"point": {"lat": 45.891373, "lng": 8.755411}, "time": 1535875927.0}, "correlation": 0.0, "distance": 84053.5, "elapsedTime": 14431.0, "id": 1813686057, "name": "Giro mattutino", "spatialCorrelation": 0.0, "startTime": 1535868053},
{"activityType": "Ride", "athleteId": 13990352, "closestDistance": 0.0, "closestPoint": {"point": {"lat": 45.8869, "lng": 8.736302}, "time": 1535875919.0}, "correlation": 0.0, "distance": 104121.0, "elapsedTime": 15700.0, "id": 1813689393, "name": "Varesotto seguendo i mondiali amatori", "spatialCorrelation": 0.0, "startTime": 1535866955},
{"activityType": "Ride", "athleteId": 26396171, "closestDistance": 0.0, "closestPoint": {"point": {"lat": 45.82467, "lng": 8.651761}, "time": 1535877470.0}, "correlation": 0.0, "distance": 42441.5, "elapsedTime": 6699.0, "id": 1813692081, "name": "Giro mattutino", "spatialCorrelation": 0.0, "startTime": 1535875814},
{"activityType": "Ride", "athleteId": 4107232, "closestDistance": 0.0, "closestPoint": {"point": {"lat": 45.818485, "lng": 8.82495}, "time": 1535879042.0}, "correlation": 0.0, "distance": 56785.5, "elapsedTime": 11251.0, "id": 1813693241, "name": "Bdc1 arrivo g.f. valli varesine", "spatialCorrelation": 0.0, "startTime": 1535871517},
{"activityType": "Ride", "athleteId": 11625422, "closestDistance": 0.0, "closestPoint": {"point": {"lat": 45.817844, "lng": 8.825907}, "time": 1535879347.0}, "correlation": 0.0, "distance": 9025.1, "elapsedTime": 3314.0, "id": 1813695330, "name": "Lunch Ride", "spatialCorrelation": 0.0, "startTime": 1535879347},
{"activityType": "Ride", "athleteId": 12382569, "closestDistance": 0.0, "closestPoint": {"point": {"lat": 45.83929, "lng": 8.719528}, "time": 1535877992.0}, "correlation": 0.0, "distance": 42368.2, "elapsedTime": 7943.0, "id": 1813696048, "name": "Morning Ride", "spatialCorrelation": 0.0, "startTime": 1535873838},
{"activityType": "Ride", "athleteId": 18999018, "closestDistance": 0.0, "closestPoint": {"point": {"lat": 45.817783, "lng": 8.825258}, "time": 1535866198.0}, "correlation": 0.0, "distance": 47600.1, "elapsedTime": 17496.0, "id": 1813700246, "name": "Giro mattutino", "spatialCorrelation": 0.0, "startTime": 1535865331},
{"activityType": "Ride", "athleteId": 5091173, "closestDistance": 0.0, "closestPoint": {"point": {"lat": 45.81806, "lng": 8.825184}, "time": 1535879281.0}, "correlation": 0.0, "distance": 29119.9, "elapsedTime": 9215.0, "id": 1813704203, "name": "Varese ", "spatialCorrelation": 0.0, "startTime": 1535873502},
{"activityType": "Ride", "athleteId": 960199, "closestDistance": 0.0, "closestPoint": {"point": {"lat": 45.95079, "lng": 8.744291}, "time": 1535874021.0}, "correlation": 0.0, "distance": 64336.3, "elapsedTime": 14527.0, "id": 1813711083, "name": "Following U.C.I. world Championship", "spatialCorrelation": 0.0, "startTime": 1535868356},
{"activityType": "Ride", "athleteId": 19877095, "closestDistance": 0.0, "closestPoint": {"point": {"lat": 45.81921, "lng": 8.822474}, "time": 1535866205.0}, "correlation": 0.0, "distance": 1239.4, "elapsedTime": 4376.0, "id": 1813712104, "name": "Giro mattutino", "spatialCorrelation": 0.0, "startTime": 1535865434},
{"activityType": "Ride", "athleteId": 16594664, "closestDistance": 0.0, "closestPoint": {"point": {"lat": 45.89671, "lng": 8.77725}, "time": 1535875323.0}, "correlation": 0.0, "distance": 56732.0, "elapsedTime": 17933.0, "id": 1813716389, "name": "Giro mattutino", "spatialCorrelation": 0.0, "startTime": 1535865162},
{"activityType": "Ride", "athleteId": 7476002, "closestDistance": 0.0, "closestPoint": {"point": {"lat": 45.819508, "lng": 8.825082}, "time": 1535879106.0}, "correlation": 0.0, "distance": 79759.8, "elapsedTime": 13794.0, "id": 1813720280, "name": "Giro mattutino", "spatialCorrelation": 0.0, "startTime": 1535869341},
{"activityType": "Ride", "athleteId": 16958205, "closestDistance": 0.0, "closestPoint": {"point": {"lat": 45.994995, "lng": 8.728573}, "time": 1535871903.0}, "correlation": 0.0, "distance": 37543.6, "elapsedTime": 14349.0, "id": 1813721777, "name": "Radfahrt am Morgen", "spatialCorrelation": 0.0, "startTime": 1535868907},
{"activityType": "Ride", "athleteId": 4018747, "closestDistance": 0.0, "closestPoint": {"point": {"lat": 45.81884, "lng": 8.825299}, "time": 1535879054.0}, "correlation": 0.0, "distance": 1036.2, "elapsedTime": 430.0, "id": 1813722676, "name": "Cool down ", "spatialCorrelation": 0.0, "startTime": 1535879023},
{"activityType": "Ride", "athleteId": 2122071, "closestDistance": 0.0, "closestPoint": {"point": {"lat": 45.907654, "lng": 8.778968}, "time": 1535875025.0}, "correlation": 0.0, "distance": 85857.9, "elapsedTime": 14861.0, "id": 1813723986, "name": "02/08/2018 BRINZIO CON NEW TEAM A VEDERE MONDIALE MASTER\ud83d\udeb4\ud83c\udffd\ud83d\udeb4\ud83c\udffd\ud83d\udeb4\ud83c\udffd", "spatialCorrelation": 0.0, "startTime": 1535867809},
{"activityType": "Ride", "athleteId": 2913210, "closestDistance": 0.0, "closestPoint": {"point": {"lat": 45.819084, "lng": 8.823064}, "time": 1535866231.0}, "correlation": 0.0, "distance": 124906.0, "elapsedTime": 16748.0, "id": 1813728114, "name": "UCI GF Varese", "spatialCorrelation": 0.0, "startTime": 1535866231},
{"activityType": "Ride", "athleteId": 9706258, "closestDistance": 0.0, "closestPoint": {"point": {"lat": 45.81794, "lng": 8.813837}, "time": 1535879249.0}, "correlation": 0.0, "distance": 84433.0, "elapsedTime": 14433.0, "id": 1813730237, "name": "Giro mattutino", "spatialCorrelation": 0.0, "startTime": 1535868289},
{"activityType": "Ride", "athleteId": 12664675, "closestDistance": 0.0, "closestPoint": {"point": {"lat": 45.81865, "lng": 8.823866}, "time": 1535866294.0}, "correlation": 0.0, "distance": 18338.4, "elapsedTime": 3480.0, "id": 1813734663, "name": "DNF  (furo)\ud83d\ude2d\ud83d\ude24", "spatialCorrelation": 0.0, "startTime": 1535866294},
{"activityType": "Ride", "athleteId": 7692518, "closestDistance": 0.0, "closestPoint": {"point": {"lat": 45.818245, "lng": 8.825358}, "time": 1535866079.0}, "correlation": 0.0, "distance": 108853.0, "elapsedTime": 20818.0, "id": 1813736283, "name": "Gran Fondo Worlds Varese", "spatialCorrelation": 0.0, "startTime": 1535862591},
{"activityType": "Ride", "athleteId": 1837314, "closestDistance": 0.0, "closestPoint": {"point": {"lat": 45.81911, "lng": 8.822878}, "time": 1535866071.0}, "correlation": 0.0, "distance": 984.6, "elapsedTime": 863.0, "id": 1813737537, "name": "NoWrmpRollertoTheStart", "spatialCorrelation": 0.0, "startTime": 1535865541},
{"activityType": "Ride", "athleteId": 21106768, "closestDistance": 0.0, "closestPoint": {"point": {"lat": 45.995705, "lng": 8.724142}, "time": 1535871840.0}, "correlation": 0.0, "distance": 77172.0, "elapsedTime": 13201.0, "id": 1813738294, "name": "Giro mattutino con il team\ud83d\udcaa\ud83c\udffb\ud83d\udcaa\ud83c\udffb\ud83d\udcaa\ud83c\udffb", "spatialCorrelation": 0.0, "startTime": 1535869596},
{"activityType": "Ride", "athleteId": 53987, "closestDistance": 0.0, "closestPoint": {"point": {"lat": 45.907227, "lng": 8.77939}, "time": 1535875037.0}, "correlation": 0.0, "distance": 100426.0, "elapsedTime": 16556.0, "id": 1813740934, "name": "Giro mattutino", "spatialCorrelation": 0.0, "startTime": 1535866783},
{"activityType": "Ride", "athleteId": 18646717, "closestDistance": 0.0, "closestPoint": {"point": {"lat": 45.816162, "lng": 8.828541}, "time": 1535879400.0}, "correlation": 0.0, "distance": 49816.1, "elapsedTime": 14107.0, "id": 1813743684, "name": "Giro mattutino", "spatialCorrelation": 0.0, "startTime": 1535869045},
{"activityType": "Ride", "athleteId": 4203400, "closestDistance": 0.0, "closestPoint": {"point": {"lat": 45.819557, "lng": 8.822239}, "time": 1535866214.0}, "correlation": 0.0, "distance": 6238.3, "elapsedTime": 1673.0, "id": 1813744554, "name": "Sortie \u00e0 v\u00e9lo matinale", "spatialCorrelation": 0.0, "startTime": 1535865424},
{"activityType": "Ride", "athleteId": 11603966, "closestDistance": 0.0, "closestPoint": {"point": {"lat": 45.806404, "lng": 8.787828}, "time": 1535878667.0}, "correlation": 0.0, "distance": 103815.0, "elapsedTime": 15009.0, "id": 1813746564, "name": "Giro mattutino", "spatialCorrelation": 0.0, "startTime": 1535868286},
{"activityType": "Ride", "athleteId": 7236234, "closestDistance": 0.0, "closestPoint": {"point": {"lat": 45.806404, "lng": 8.787828}, "time": 1535878667.0}, "correlation": 0.0, "distance": 103815.0, "elapsedTime": 15009.0, "id": 1813746729, "name": "Giro mattutino", "spatialCorrelation": 0.0, "startTime": 1535868286},
{"activityType": "Ride", "athleteId": 13042692, "closestDistance": 0.0, "closestPoint": {"point": {"lat": 45.819508, "lng": 8.825137}, "time": 1535879106.0}, "correlation": 0.0, "distance": 84714.1, "elapsedTime": 14440.0, "id": 1813747339, "name": "Giro mattutino", "spatialCorrelation": 0.0, "startTime": 1535869067},
{"activityType": "Ride", "athleteId": 34227383, "closestDistance": 0.0, "closestPoint": {"point": {"lat": 45.808678, "lng": 8.778386}, "time": 1535878560.0}, "correlation": 0.0, "distance": 34340.9, "elapsedTime": 6870.0, "id": 1813750869, "name": "Giro mattutino", "spatialCorrelation": 0.0, "startTime": 1535876873},
{"activityType": "Ride", "athleteId": 21920592, "closestDistance": 0.0, "closestPoint": {"point": {"lat": 45.914764, "lng": 8.772743}, "time": 1535874890.0}, "correlation": 0.0, "distance": 72159.3, "elapsedTime": 13896.0, "id": 1813754212, "name": "Morning Ride", "spatialCorrelation": 0.0, "startTime": 1535867625},
{"activityType": "Ride", "athleteId": 11943302, "closestDistance": 0.0, "closestPoint": {"point": {"lat": 45.88905, "lng": 8.788848}, "time": 1535875704.0}, "correlation": 0.0, "distance": 40653.3, "elapsedTime": 14608.0, "id": 1813754352, "name": "Morning Ride", "spatialCorrelation": 0.0, "startTime": 1535864395},
{"activityType": "Ride", "athleteId": 1826811, "closestDistance": 0.0, "closestPoint": {"point": {"lat": 45.942566, "lng": 8.829538}, "time": 1535870291.0}, "correlation": 0.0, "distance": 107538.0, "elapsedTime": 15190.0, "id": 1813754953, "name": "Giro MONDIALE!!!!", "spatialCorrelation": 0.0, "startTime": 1535868316},
{"activityType": "Ride", "athleteId": 6405715, "closestDistance": 0.0, "closestPoint": {"point": {"lat": 45.817966, "lng": 8.813791}, "time": 1535879241.0}, "correlation": 0.0, "distance": 90125.4, "elapsedTime": 15777.0, "id": 1813756433, "name": "Valle e Sacro Monte", "spatialCorrelation": 0.0, "startTime": 1535867128},
{"activityType": "Ride", "athleteId": 4711526, "closestDistance": 0.0, "closestPoint": {"point": {"lat": 45.819664, "lng": 8.822291}, "time": 1535879335.0}, "correlation": 0.0, "distance": 91509.2, "elapsedTime": 15382.0, "id": 1813761355, "name": "Campo dei Fiori", "spatialCorrelation": 0.0, "startTime": 1535868111},
{"activityType": "Ride", "athleteId": 9531925, "closestDistance": 0.0, "closestPoint": {"point": {"lat": 45.81786, "lng": 8.813768}, "time": 1535879249.0}, "correlation": 0.0, "distance": 90779.4, "elapsedTime": 16177.0, "id": 1813761729, "name": "Giro mattutino", "spatialCorrelation": 0.0, "startTime": 1535866962},
{"activityType": "Ride", "athleteId": 31715769, "closestDistance": 0.0, "closestPoint": {"point": {"lat": 45.89656, "lng": 8.777262}, "time": 1535875328.0}, "correlation": 0.0, "distance": 39739.2, "elapsedTime": 12846.0, "id": 1813762570, "name": "Zig-zagando \ud83e\udd2a\ud83e\udd2a\ud83d\udeb4\ud83c\udffc\u200d\u2640\ufe0fun po\u2019 qua un po\u2019 la!! Con Stefano Regazzoni e Enrico Motti \ud83d\ude42", "spatialCorrelation": 0.0, "startTime": 1535869872},
{"activityType": "Ride", "athleteId": 8325231, "closestDistance": 0.0, "closestPoint": {"point": {"lat": 45.817905, "lng": 8.813782}, "time": 1535879250.0}, "correlation": 0.0, "distance": 91348.2, "elapsedTime": 16059.0, "id": 1813763320, "name": "Giro mattutino", "spatialCorrelation": 0.0, "startTime": 1535867601},
{"activityType": "Ride", "athleteId": 5104788, "closestDistance": 0.0, "closestPoint": {"point": {"lat": 45.81883, "lng": 8.824072}, "time": 1535879162.0}, "correlation": 0.0, "distance": 49043.5, "elapsedTime": 12082.0, "id": 1813765159, "name": "Giro mattutino", "spatialCorrelation": 0.0, "startTime": 1535871663},
{"activityType": "Ride", "athleteId": 1381115, "closestDistance": 0.0, "closestPoint": {"point": {"lat": 45.959312, "lng": 8.740296}, "time": 1535873760.0}, "correlation": 0.0, "distance": 118106.0, "elapsedTime": 18242.0, "id": 1813768065, "name": "Morning Ride", "spatialCorrelation": 0.0, "startTime": 1535865166},
{"activityType": "Ride", "athleteId": 9269905, "closestDistance": 0.0, "closestPoint": {"point": {"lat": 45.80635, "lng": 8.78814}, "time": 1535878663.0}, "correlation": 0.0, "distance": 103901.0, "elapsedTime": 15039.0, "id": 1813771015, "name": "Giro mattutino", "spatialCorrelation": 0.0, "startTime": 1535868290},
{"activityType": "Ride", "athleteId": 10029946, "closestDistance": 0.0, "closestPoint": {"point": {"lat": 45.82712, "lng": 8.678747}, "time": 1535877660.0}, "correlation": 0.0, "distance": 44976.2, "elapsedTime": 8828.0, "id": 1813776829, "name": "Morning Ride", "spatialCorrelation": 0.0, "startTime": 1535871444},
{"activityType": "Ride", "athleteId": 33308601, "closestDistance": 0.0, "closestPoint": {"point": {"lat": 45.90725, "lng": 8.779396}, "time": 1535875037.0}, "correlation": 0.0, "distance": 83800.8, "elapsedTime": 17002.0, "id": 1813788202, "name": "Giro mattutino", "spatialCorrelation": 0.0, "startTime": 1535866718},
{"activityType": "Ride", "athleteId": 2325213, "closestDistance": 0.0, "closestPoint": {"point": {"lat": 45.887016, "lng": 8.736305}, "time": 1535875919.0}, "correlation": 0.0, "distance": 118439.0, "elapsedTime": 16521.0, "id": 1813791606, "name": "Paolo davanti... dietro tutti quanti!", "spatialCorrelation": 0.0, "startTime": 1535867439},
{"activityType": "Ride", "athleteId": 5355758, "closestDistance": 0.0, "closestPoint": {"point": {"lat": 45.950035, "lng": 8.682605}, "time": 1535872677.0}, "correlation": 0.0, "distance": 61977.2, "elapsedTime": 12715.0, "id": 1813792076, "name": "Varese Granfondo World Championships \ud83c\udff3\ufe0f\u200d\ud83c\udf08 (parziale)", "spatialCorrelation": 0.0, "startTime": 1535871684},
{"activityType": "Ride", "athleteId": 426100, "closestDistance": 0.0, "closestPoint": {"point": {"lat": 45.81904, "lng": 8.82334}, "time": 1535866333.0}, "correlation": 0.0, "distance": 3347.7, "elapsedTime": 1490.0, "id": 1813793889, "name": "Morning Ride", "spatialCorrelation": 0.0, "startTime": 1535865362},
{"activityType": "Ride", "athleteId": 595919, "closestDistance": 0.0, "closestPoint": {"point": {"lat": 45.905884, "lng": 8.782986}, "time": 1535875042.0}, "correlation": 0.0, "distance": 100681.0, "elapsedTime": 17412.0, "id": 1813801897, "name": "Morning Ride", "spatialCorrelation": 0.0, "startTime": 1535866972},
{"activityType": "Ride", "athleteId": 10919049, "closestDistance": 0.0, "closestPoint": {"point": {"lat": 45.828148, "lng": 8.650961}, "time": 1535877371.0}, "correlation": 0.0, "distance": 85202.8, "elapsedTime": 10804.0, "id": 1813802282, "name": "Giro mattutino", "spatialCorrelation": 0.0, "startTime": 1535873420},
{"activityType": "Ride", "athleteId": 17869765, "closestDistance": 0.0, "closestPoint": {"point": {"lat": 45.94716, "lng": 8.880825}, "time": 1535869804.0}, "correlation": 0.0, "distance": 56957.1, "elapsedTime": 19557.0, "id": 1813806107, "name": "Giro mattutino", "spatialCorrelation": 0.0, "startTime": 1535864962},
{"activityType": "Ride", "athleteId": 1250276, "closestDistance": 0.0, "closestPoint": {"point": {"lat": 45.81742, "lng": 8.826201}, "time": 1535866193.0}, "correlation": 0.0, "distance": 83695.2, "elapsedTime": 18727.0, "id": 1813808974, "name": "Monte Generoso ...... pedalato con campione del mondo F1 Alain Prost", "spatialCorrelation": 0.0, "startTime": 1535865869},
{"activityType": "Ride", "athleteId": 10446472, "closestDistance": 0.0, "closestPoint": {"point": {"lat": 45.818523, "lng": 8.825129}, "time": 1535879504.0}, "correlation": 0.0, "distance": 103434.0, "elapsedTime": 15208.0, "id": 1813809858, "name": "Giro mattutino", "spatialCorrelation": 0.0, "startTime": 1535869456},
{"activityType": "Ride", "athleteId": 465631, "closestDistance": 0.0, "closestPoint": {"point": {"lat": 45.889572, "lng": 8.786253}, "time": 1535875694.0}, "correlation": 0.0, "distance": 67321.7, "elapsedTime": 12901.0, "id": 1813817075, "name": "Giro mattutino", "spatialCorrelation": 0.0, "startTime": 1535870424},
{"activityType": "Ride", "athleteId": 4243097, "closestDistance": 0.0, "closestPoint": {"point": {"lat": 45.897003, "lng": 8.777676}, "time": 1535875324.0}, "correlation": 0.0, "distance": 38634.2, "elapsedTime": 12702.0, "id": 1813825823, "name": "Giro mattutino", "spatialCorrelation": 0.0, "startTime": 1535870083},
{"activityType": "Ride", "athleteId": 18576567, "closestDistance": 0.0, "closestPoint": {"point": {"lat": 45.88473, "lng": 8.698404}, "time": 1535876194.0}, "correlation": 0.0, "distance": 140019.0, "elapsedTime": 18047.0, "id": 1813828470, "name": "Giro mattutino", "spatialCorrelation": 0.0, "startTime": 1535866886},
{"activityType": "Ride", "athleteId": 4110825, "closestDistance": 0.0, "closestPoint": {"point": {"lat": 45.932823, "lng": 8.784687}, "time": 1535874706.0}, "correlation": 0.0, "distance": 73255.6, "elapsedTime": 16368.0, "id": 1813828782, "name": "Giro mattutino", "spatialCorrelation": 0.0, "startTime": 1535868416},
{"activityType": "Ride", "athleteId": 15557481, "closestDistance": 0.0, "closestPoint": {"point": {"lat": 45.817696, "lng": 8.825109}, "time": 1535866089.0}, "correlation": 0.0, "distance": 92363.9, "elapsedTime": 20130.0, "id": 1813830369, "name": "Giro mattutino", "spatialCorrelation": 0.0, "startTime": 1535864667},
{"activityType": "Ride", "athleteId": 10883820, "closestDistance": 0.0, "closestPoint": {"point": {"lat": 45.814808, "lng": 8.82765}, "time": 1535866210.0}, "correlation": 0.0, "distance": 10114.8, "elapsedTime": 2182.0, "id": 1813833167, "name": "Morning Ride", "spatialCorrelation": 0.0, "startTime": 1535865277},
{"activityType": "Ride", "athleteId": 18254681, "closestDistance": 0.0, "closestPoint": {"point": {"lat": 45.884777, "lng": 8.698446}, "time": 1535876194.0}, "correlation": 0.0, "distance": 132966.0, "elapsedTime": 17030.0, "id": 1813833709, "name": "Morning Ride", "spatialCorrelation": 0.0, "startTime": 1535867837},
{"activityType": "Ride", "athleteId": 1821356, "closestDistance": 0.0, "closestPoint": {"point": {"lat": 45.818638, "lng": 8.823863}, "time": 1535866220.0}, "correlation": 0.0, "distance": 126200.0, "elapsedTime": 17671.0, "id": 1813834091, "name": "UCI Granfondo World Champs ", "spatialCorrelation": 0.0, "startTime": 1535866137},
{"activityType": "Ride", "athleteId": 10937949, "closestDistance": 0.0, "closestPoint": {"point": {"lat": 45.81895, "lng": 8.823375}, "time": 1535879184.0}, "correlation": 0.0, "distance": 65251.1, "elapsedTime": 11520.0, "id": 1813836381, "name": "Gavirate-Schiranna-Varese per Mondiale Cicloamatori-Morazzone-Cairate", "spatialCorrelation": 0.0, "startTime": 1535871166},
{"activityType": "Ride", "athleteId": 307485, "closestDistance": 0.0, "closestPoint": {"point": {"lat": 45.819103, "lng": 8.823031}, "time": 1535866038.0}, "correlation": 0.0, "distance": 14066.0, "elapsedTime": 5002.0, "id": 1813836435, "name": "Morning Ride", "spatialCorrelation": 0.0, "startTime": 1535862260},
{"activityType": "Ride", "athleteId": 2287284, "closestDistance": 0.0, "closestPoint": {"point": {"lat": 45.90508, "lng": 8.786649}, "time": 1535875620.0}, "correlation": 0.0, "distance": 102322.0, "elapsedTime": 21218.0, "id": 1813845175, "name": "#assistenzamundial", "spatialCorrelation": 0.0, "startTime": 1535863983},
{"activityType": "Ride", "athleteId": 3303264, "closestDistance": 0.0, "closestPoint": {"point": {"lat": 45.95122, "lng": 8.675175}, "time": 1535872864.0}, "correlation": 0.0, "distance": 100731.0, "elapsedTime": 15474.0, "id": 1813854815, "name": "Nasca Sasso Sacromonte col fischio", "spatialCorrelation": 0.0, "startTime": 1535869186},
{"activityType": "Ride", "athleteId": 15508272, "closestDistance": 0.0, "closestPoint": {"point": {"lat": 45.937218, "lng": 8.823764}, "time": 1535870600.0}, "correlation": 0.0, "distance": 40717.1, "elapsedTime": 16963.0, "id": 1813858488, "name": "Giro mattutino", "spatialCorrelation": 0.0, "startTime": 1535868497},
{"activityType": "Ride", "athleteId": 15793620, "closestDistance": 0.0, "closestPoint": {"point": {"lat": 45.937218, "lng": 8.823764}, "time": 1535870600.0}, "correlation": 0.0, "distance": 40717.1, "elapsedTime": 16963.0, "id": 1813858558, "name": "Giro mattutino", "spatialCorrelation": 0.0, "startTime": 1535868497},
{"activityType": "Ride", "athleteId": 5100807, "closestDistance": 0.0, "closestPoint": {"point": {"lat": 45.817657, "lng": 8.825042}, "time": 1535879483.0}, "correlation": 0.0, "distance": 546.7, "elapsedTime": 1298.0, "id": 1813859308, "name": "Mittagsradfahrt", "spatialCorrelation": 0.0, "startTime": 1535879479},
{"activityType": "Ride", "athleteId": 13728998, "closestDistance": 0.0, "closestPoint": {"point": {"lat": 45.811462, "lng": 8.761523}, "time": 1535878646.0}, "correlation": 0.0, "distance": 27603.2, "elapsedTime": 8695.0, "id": 1813860880, "name": "Giro mattutino", "spatialCorrelation": 0.0, "startTime": 1535876806},
{"activityType": "Ride", "athleteId": 5797033, "closestDistance": 0.0, "closestPoint": {"point": {"lat": 45.819527, "lng": 8.822228}, "time": 1535879340.0}, "correlation": 0.0, "distance": 103714.0, "elapsedTime": 16963.0, "id": 1813862612, "name": "Campo dei Fiori di Varese", "spatialCorrelation": 0.0, "startTime": 1535867068},
{"activityType": "Ride", "athleteId": 32307341, "closestDistance": 0.0, "closestPoint": {"point": {"lat": 45.819054, "lng": 8.823147}, "time": 1535866485.0}, "correlation": 0.0, "distance": 130658.0, "elapsedTime": 15925.0, "id": 1813864867, "name": "VM Varese 2018", "spatialCorrelation": 0.0, "startTime": 1535865650},
{"activityType": "Ride", "athleteId": 22937651, "closestDistance": 0.0, "closestPoint": {"point": {"lat": 45.815136, "lng": 8.828343}, "time": 1535866320.0}, "correlation": 0.0, "distance": 30401.5, "elapsedTime": 19199.0, "id": 1813865981, "name": "Vandb\u00e6reren", "spatialCorrelation": 0.0, "startTime": 1535866317},
{"activityType": "Ride", "athleteId": 3694596, "closestDistance": 0.0, "closestPoint": {"point": {"lat": 45.917915, "lng": 8.772845}, "time": 1535874747.0}, "correlation": 0.0, "distance": 100394.0, "elapsedTime": 17208.0, "id": 1813871299, "name": "Giro mattutino", "spatialCorrelation": 0.0, "startTime": 1535868551},
{"activityType": "Ride", "athleteId": 218638, "closestDistance": 0.0, "closestPoint": {"point": {"lat": 45.897194, "lng": 8.82788}, "time": 1535867691.0}, "correlation": 0.0, "distance": 35185.0, "elapsedTime": 4841.0, "id": 1813871791, "name": "Morning Ride", "spatialCorrelation": 0.0, "startTime": 1535866515},
{"activityType": "Ride", "athleteId": 3488892, "closestDistance": 0.0, "closestPoint": {"point": {"lat": 45.816933, "lng": 8.825868}, "time": 1535879346.0}, "correlation": 0.0, "distance": 69914.1, "elapsedTime": 15156.0, "id": 1813876169, "name": "Non si pu\u00f2 dire di no a un campione come Tommaso  Elettrico \ud83d\udc4d\ud83d\ude0a\ud83d\udeb4\ud83c\udfff", "spatialCorrelation": 0.0, "startTime": 1535870521},
{"activityType": "Ride", "athleteId": 4906077, "closestDistance": 0.0, "closestPoint": {"point": {"lat": 45.81978, "lng": 8.822382}, "time": 1535879326.0}, "correlation": 0.0, "distance": 100782.0, "elapsedTime": 16418.0, "id": 1813883532, "name": "campo dei fiori varese", "spatialCorrelation": 0.0, "startTime": 1535867582},
{"activityType": "Ride", "athleteId": 27611424, "closestDistance": 0.0, "closestPoint": {"point": {"lat": 45.889656, "lng": 8.788012}, "time": 1535875578.0}, "correlation": 0.0, "distance": 22639.4, "elapsedTime": 6116.0, "id": 1813885991, "name": "Gran fondo world Championship 2018 (da spettatore).", "spatialCorrelation": 0.0, "startTime": 1535871105},
{"activityType": "Ride", "athleteId": 4997532, "closestDistance": 0.0, "closestPoint": {"point": {"lat": 45.88688, "lng": 8.736317}, "time": 1535875920.0}, "correlation": 0.0, "distance": 104198.0, "elapsedTime": 14515.0, "id": 1813889009, "name": "Giro in gruppo!!", "spatialCorrelation": 0.0, "startTime": 1535868626},
{"activityType": "Ride", "athleteId": 1858794, "closestDistance": 0.0, "closestPoint": {"point": {"lat": 45.815086, "lng": 8.829374}, "time": 1535866334.0}, "correlation": 0.0, "distance": 5501.7, "elapsedTime": 2381.0, "id": 1813899473, "name": "Ochtendrit", "spatialCorrelation": 0.0, "startTime": 1535865416},
{"activityType": "Ride", "athleteId": 10043297, "closestDistance": 0.0, "closestPoint": {"point": {"lat": 45.981537, "lng": 8.741595}, "time": 1535871826.0}, "correlation": 0.0, "distance": 78528.4, "elapsedTime": 18453.0, "id": 1813903482, "name": "Giro per vedere il mondiale", "spatialCorrelation": 0.0, "startTime": 1535867793},
{"activityType": "Ride", "athleteId": 6697625, "closestDistance": 0.0, "closestPoint": {"point": {"lat": 45.82845, "lng": 8.823761}, "time": 1535866128.0}, "correlation": 0.0, "distance": 4689.0, "elapsedTime": 2270.0, "id": 1813906856, "name": "Warm up", "spatialCorrelation": 0.0, "startTime": 1535864496},
{"activityType": "Ride", "athleteId": 12765442, "closestDistance": 0.0, "closestPoint": {"point": {"lat": 45.890556, "lng": 8.763209}, "time": 1535875548.0}, "correlation": 0.0, "distance": 134477.0, "elapsedTime": 18123.0, "id": 1813912820, "name": "Giro mattutino", "spatialCorrelation": 0.0, "startTime": 1535868292},
{"activityType": "Ride", "athleteId": 4054006, "closestDistance": 0.0, "closestPoint": {"point": {"lat": 45.902596, "lng": 8.829358}, "time": 1535867160.0}, "correlation": 0.0, "distance": 78412.5, "elapsedTime": 17597.0, "id": 1813913605, "name": "Ministage dag 4: Coach Lars", "spatialCorrelation": 0.0, "startTime": 1535864474},
{"activityType": "Ride", "athleteId": 12184312, "closestDistance": 0.0, "closestPoint": {"point": {"lat": 45.90269, "lng": 8.783517}, "time": 1535875289.0}, "correlation": 0.0, "distance": 51598.5, "elapsedTime": 20139.0, "id": 1813917899, "name": "Giro mattutino", "spatialCorrelation": 0.0, "startTime": 1535866325},
{"activityType": "Ride", "athleteId": 16419054, "closestDistance": 0.0, "closestPoint": {"point": {"lat": 45.81839, "lng": 8.825294}, "time": 1535879351.0}, "correlation": 0.0, "distance": 68138.0, "elapsedTime": 16512.0, "id": 1813918319, "name": "Giro mattutino", "spatialCorrelation": 0.0, "startTime": 1535868598},
{"activityType": "Ride", "athleteId": 2776933, "closestDistance": 0.0, "closestPoint": {"point": {"lat": 45.82737, "lng": 8.823989}, "time": 1535866243.0}, "correlation": 0.0, "distance": 1366.0, "elapsedTime": 346.0, "id": 1813921591, "name": "Morning Ride", "spatialCorrelation": 0.0, "startTime": 1535866194},
{"activityType": "Ride", "athleteId": 15122350, "closestDistance": 0.0, "closestPoint": {"point": {"lat": 45.82542, "lng": 8.824501}, "time": 1535866322.0}, "correlation": 0.0, "distance": 81367.5, "elapsedTime": 16697.0, "id": 1813922209, "name": "UCI Granfondo World Championships \u27a1\ufe0f 2 crevaisons \ud83d\ude29", "spatialCorrelation": 0.0, "startTime": 1535866204},
{"activityType": "Ride", "athleteId": 1675540, "closestDistance": 0.0, "closestPoint": {"point": {"lat": 45.887764, "lng": 8.734983}, "time": 1535875922.0}, "correlation": 0.0, "distance": 120584.0, "elapsedTime": 17442.0, "id": 1813928971, "name": "Morning Ride", "spatialCorrelation": 0.0, "startTime": 1535866835},
{"activityType": "Ride", "athleteId": 11092899, "closestDistance": 0.0, "closestPoint": {"point": {"lat": 45.815144, "lng": 8.829351}, "time": 1535866369.0}, "correlation": 0.0, "distance": 10027.1, "elapsedTime": 2382.0, "id": 1813939309, "name": "Warm up", "spatialCorrelation": 0.0, "startTime": 1535864328},
{"activityType": "Ride", "athleteId": 176029, "closestDistance": 0.0, "closestPoint": {"point": {"lat": 45.8181, "lng": 8.825445}, "time": 1535866160.0}, "correlation": 0.0, "distance": 132538.0, "elapsedTime": 19724.0, "id": 1813942036, "name": "2018 UCI Gran Fondo World Championships and after 2 days of rain, we copped a good one. And what a ride, after my fall last week and on an unfamiliar bike, happy with just staying upright to finish. Cheers to you TH.", "spatialCorrelation": 0.0, "startTime": 1535866015},
{"activityType": "Ride", "athleteId": 2329352, "closestDistance": 0.0, "closestPoint": {"point": {"lat": 45.890526, "lng": 8.763217}, "time": 1535875546.0}, "correlation": 0.0, "distance": 140870.0, "elapsedTime": 17946.0, "id": 1813945150, "name": "Giro mattutino", "spatialCorrelation": 0.0, "startTime": 1535868315},
{"activityType": "Ride", "athleteId": 5496326, "closestDistance": 0.0, "closestPoint": {"point": {"lat": 45.824932, "lng": 8.824706}, "time": 1535866100.0}, "correlation": 0.0, "distance": 80382.3, "elapsedTime": 14531.0, "id": 1813954036, "name": "UCI Varese - great until tyre exploded", "spatialCorrelation": 0.0, "startTime": 1535864760},
{"activityType": "Ride", "athleteId": 7337817, "closestDistance": 0.0, "closestPoint": {"point": {"lat": 45.981552, "lng": 8.7416}, "time": 1535871827.0}, "correlation": 0.0, "distance": 76410.7, "elapsedTime": 17431.0, "id": 1813955134, "name": "Giro mattutino", "spatialCorrelation": 0.0, "startTime": 1535869605},
{"activityType": "Ride", "athleteId": 5156216, "closestDistance": 0.0, "closestPoint": {"point": {"lat": 45.981544, "lng": 8.741534}, "time": 1535871675.0}, "correlation": 0.0, "distance": 84277.2, "elapsedTime": 18473.0, "id": 1813955712, "name": "All\u2019inseguimento gran fondo!!!!\ud83d\udeb4\u200d\u2642\ufe0f\ud83d\udeb4\u200d\u2642\ufe0f\ud83d\udeb4\u200d\u2642\ufe0f\ud83d\udeb4\u200d\u2642\ufe0f\ud83d\udcaa\ud83d\udcaa", "spatialCorrelation": 0.0, "startTime": 1535868658},
{"activityType": "Ride", "athleteId": 14691104, "closestDistance": 0.0, "closestPoint": {"point": {"lat": 45.944836, "lng": 8.819357}, "time": 1535870500.0}, "correlation": 0.0, "distance": 60810.7, "elapsedTime": 22492.0, "id": 1813956213, "name": "Giro mattutino", "spatialCorrelation": 0.0, "startTime": 1535864641},
{"activityType": "Ride", "athleteId": 2361901, "closestDistance": 0.0, "closestPoint": {"point": {"lat": 45.88075, "lng": 8.710943}, "time": 1535876281.0}, "correlation": 0.0, "distance": 141005.0, "elapsedTime": 20812.0, "id": 1813958393, "name": "Morning Ride", "spatialCorrelation": 0.0, "startTime": 1535865989},
{"activityType": "Ride", "athleteId": 3073793, "closestDistance": 0.0, "closestPoint": {"point": {"lat": 45.818523, "lng": 8.825287}, "time": 1535879160.0}, "correlation": 0.0, "distance": 117377.0, "elapsedTime": 18466.0, "id": 1813958727, "name": "Alpe Tedesco - Ardena - Sacro Monte", "spatialCorrelation": 0.0, "startTime": 1535868287},
{"activityType": "Ride", "athleteId": 8077468, "closestDistance": 0.0, "closestPoint": {"point": {"lat": 45.949574, "lng": 8.765925}, "time": 1535874198.0}, "correlation": 0.0, "distance": 23354.4, "elapsedTime": 4862.0, "id": 1813960292, "name": "MONDIALE UCI TRASFERIMENTO RUOTA BUCATA \ud83d\ude21\ud83d\ude21\ud83d\ude21\ud83d\ude21\ud83d\ude21", "spatialCorrelation": 0.0, "startTime": 1535873828},
{"activityType": "Ride", "athleteId": 15330738, "closestDistance": 0.0, "closestPoint": {"point": {"lat": 45.81298, "lng": 8.808806}, "time": 1535879252.0}, "correlation": 0.0, "distance": 58248.3, "elapsedTime": 8374.0, "id": 1813965258, "name": "Giro mattutino", "spatialCorrelation": 0.0, "startTime": 1535878720},
{"activityType": "Ride", "athleteId": 19761227, "closestDistance": 0.0, "closestPoint": {"point": {"lat": 45.81949, "lng": 8.821468}, "time": 1535879039.0}, "correlation": 0.0, "distance": 66250.4, "elapsedTime": 15089.0, "id": 1813973319, "name": "Giro mattutino", "spatialCorrelation": 0.0, "startTime": 1535871438},
{"activityType": "Ride", "athleteId": 11174808, "closestDistance": 0.0, "closestPoint": {"point": {"lat": 45.893852, "lng": 8.837102}, "time": 1535867759.0}, "correlation": 0.0, "distance": 120272.0, "elapsedTime": 23662.0, "id": 1813980364, "name": "Giro mattutino", "spatialCorrelation": 0.0, "startTime": 1535862296},
{"activityType": "Ride", "athleteId": 14302920, "closestDistance": 0.0, "closestPoint": {"point": {"lat": 45.98159, "lng": 8.741544}, "time": 1535871830.0}, "correlation": 0.0, "distance": 79300.0, "elapsedTime": 18632.0, "id": 1813981130, "name": "In giro a vedere mondiali ..", "spatialCorrelation": 0.0, "startTime": 1535868987},
{"activityType": "Ride", "athleteId": 5989839, "closestDistance": 0.0, "closestPoint": {"point": {"lat": 45.886944, "lng": 8.736516}, "time": 1535875918.0}, "correlation": 0.0, "distance": 120148.0, "elapsedTime": 21280.0, "id": 1813995327, "name": "Giro mattutino", "spatialCorrelation": 0.0, "startTime": 1535865089},
{"activityType": "Ride", "athleteId": 11504111, "closestDistance": 0.0, "closestPoint": {"point": {"lat": 45.907772, "lng": 8.828626}, "time": 1535867165.0}, "correlation": 0.0, "distance": 69908.0, "elapsedTime": 18009.0, "id": 1813995606, "name": "Giro mattutino", "spatialCorrelation": 0.0, "startTime": 1535864447},
{"activityType": "Ride", "athleteId": 18916364, "closestDistance": 0.0, "closestPoint": {"point": {"lat": 45.919285, "lng": 8.771607}, "time": 1535874694.0}, "correlation": 0.0, "distance": 72278.8, "elapsedTime": 14320.0, "id": 1813999244, "name": "Oggi a Varese mondiali di ciclismo amatoriale ", "spatialCorrelation": 0.0, "startTime": 1535869658},
{"activityType": "Ride", "athleteId": 24536139, "closestDistance": 0.0, "closestPoint": {"point": {"lat": 45.880783, "lng": 8.710969}, "time": 1535876279.0}, "correlation": 0.0, "distance": 146333.0, "elapsedTime": 21675.0, "id": 1813999699, "name": "Giro mattutino", "spatialCorrelation": 0.0, "startTime": 1535865427},
{"activityType": "Ride", "athleteId": 6202539, "closestDistance": 0.0, "closestPoint": {"point": {"lat": 45.816612, "lng": 8.810405}, "time": 1535879123.0}, "correlation": 0.0, "distance": 59664.3, "elapsedTime": 18315.0, "id": 1814004293, "name": "Naughty Pothole - DNF", "spatialCorrelation": 0.0, "startTime": 1535868894},
{"activityType": "Ride", "athleteId": 21130822, "closestDistance": 0.0, "closestPoint": {"point": {"lat": 45.89104, "lng": 8.754489}, "time": 1535875944.0}, "correlation": 0.0, "distance": 77777.4, "elapsedTime": 14956.0, "id": 1814005568, "name": "Passando borracce \u270c\ud83c\udffb", "spatialCorrelation": 0.0, "startTime": 1535870386},
{"activityType": "Ride", "athleteId": 154253, "closestDistance": 0.0, "closestPoint": {"point": {"lat": 45.818863, "lng": 8.823603}, "time": 1535866199.0}, "correlation": 0.0, "distance": 3718.5, "elapsedTime": 3188.0, "id": 1814009882, "name": "Morning Ride", "spatialCorrelation": 0.0, "startTime": 1535863087},
{"activityType": "Ride", "athleteId": 10179233, "closestDistance": 0.0, "closestPoint": {"point": {"lat": 45.88076, "lng": 8.710951}, "time": 1535876281.0}, "correlation": 0.0, "distance": 156535.0, "elapsedTime": 22523.0, "id": 1814012024, "name": "Giro mattutino Varese Brinzio (mancato causa coppa del mondo gran fondo)", "spatialCorrelation": 0.0, "startTime": 1535865102},
{"activityType": "Ride", "athleteId": 5324811, "closestDistance": 0.0, "closestPoint": {"point": {"lat": 45.819096, "lng": 8.825126}, "time": 1535866288.0}, "correlation": 0.0, "distance": 127138.0, "elapsedTime": 20566.0, "id": 1814013065, "name": "UCI Gran Fondo 2018 Varese", "spatialCorrelation": 0.0, "startTime": 1535866265},
{"activityType": "Ride", "athleteId": 25905117, "closestDistance": 0.0, "closestPoint": {"point": {"lat": 45.817917, "lng": 8.825319}, "time": 1535866103.0}, "correlation": 0.0, "distance": 90881.4, "elapsedTime": 18401.0, "id": 1814023045, "name": "Monte generoso con claudio marco roberto gianluca", "spatialCorrelation": 0.0, "startTime": 1535864802},
{"activityType": "Ride", "athleteId": 8027560, "closestDistance": 0.0, "closestPoint": {"point": {"lat": 45.82419, "lng": 8.824792}, "time": 1535866314.0}, "correlation": 0.0, "distance": 125880.0, "elapsedTime": 19607.0, "id": 1814032349, "name": "Morning Ride", "spatialCorrelation": 0.0, "startTime": 1535866115},
{"activityType": "Ride", "athleteId": 2040785, "closestDistance": 0.0, "closestPoint": {"point": {"lat": 45.817394, "lng": 8.82517}, "time": 1535866177.0}, "correlation": 0.0, "distance": 4269.9, "elapsedTime": 2269.0, "id": 1814034382, "name": "Morning Ride", "spatialCorrelation": 0.0, "startTime": 1535864479},
{"activityType": "Ride", "athleteId": 15078630, "closestDistance": 0.0, "closestPoint": {"point": {"lat": 45.88981, "lng": 8.787813}, "time": 1535875632.0}, "correlation": 0.0, "distance": 55164.1, "elapsedTime": 18720.0, "id": 1814036448, "name": "Mondiali ciclismo varese 2018 TUTTI PER ZATT", "spatialCorrelation": 0.0, "startTime": 1535866720},
{"activityType": "Ride", "athleteId": 28929123, "closestDistance": 0.0, "closestPoint": {"point": {"lat": 45.900948, "lng": 8.782192}, "time": 1535875431.0}, "correlation": 0.0, "distance": 64551.1, "elapsedTime": 15872.0, "id": 1814049027, "name": "Giro mattutino", "spatialCorrelation": 0.0, "startTime": 1535873090},
{"activityType": "Ride", "athleteId": 13922881, "closestDistance": 0.0, "closestPoint": {"point": {"lat": 45.98256, "lng": 8.748035}, "time": 1535871513.0}, "correlation": 0.0, "distance": 129809.0, "elapsedTime": 24024.0, "id": 1814055962, "name": "Morning Ride", "spatialCorrelation": 0.0, "startTime": 1535861268},
{"activityType": "Ride", "athleteId": 5827416, "closestDistance": 0.0, "closestPoint": {"point": {"lat": 45.81924, "lng": 8.821972}, "time": 1535879133.0}, "correlation": 0.0, "distance": 51237.7, "elapsedTime": 11182.0, "id": 1814061753, "name": "Giro mattutino", "spatialCorrelation": 0.0, "startTime": 1535870725},
{"activityType": "Ride", "athleteId": 3073209, "closestDistance": 0.0, "closestPoint": {"point": {"lat": 45.889645, "lng": 8.788002}, "time": 1535875708.0}, "correlation": 0.0, "distance": 77254.9, "elapsedTime": 15194.0, "id": 1814063108, "name": "Giretto relax con uno nuovo collega ;-)", "spatialCorrelation": 0.0, "startTime": 1535873470},
{"activityType": "Ride", "athleteId": 210131, "closestDistance": 0.0, "closestPoint": {"point": {"lat": 45.91952, "lng": 8.771914}, "time": 1535875060.0}, "correlation": 0.0, "distance": 80433.0, "elapsedTime": 14573.0, "id": 1814075627, "name": "Morning Ride", "spatialCorrelation": 0.0, "startTime": 1535869828},
{"activityType": "Ride", "athleteId": 7270500, "closestDistance": 0.0, "closestPoint": {"point": {"lat": 45.81974, "lng": 8.822308}, "time": 1535879331.0}, "correlation": 0.0, "distance": 99958.8, "elapsedTime": 16530.0, "id": 1814089749, "name": "Giro mattutino", "spatialCorrelation": 0.0, "startTime": 1535867468},
{"activityType": "Ride", "athleteId": 21688610, "closestDistance": 0.0, "closestPoint": {"point": {"lat": 45.90239, "lng": 8.829366}, "time": 1535867161.0}, "correlation": 0.0, "distance": 36202.6, "elapsedTime": 17240.0, "id": 1814096149, "name": "Giretto sul percorso dei mondiali granfondo", "spatialCorrelation": 0.0, "startTime": 1535866753},
{"activityType": "Ride", "athleteId": 23831874, "closestDistance": 0.0, "closestPoint": {"point": {"lat": 45.990574, "lng": 8.734739}, "time": 1535871702.0}, "correlation": 0.0, "distance": 61783.1, "elapsedTime": 19147.0, "id": 1814120841, "name": "Giro mattutino", "spatialCorrelation": 0.0, "startTime": 1535871321},
{"activityType": "Ride", "athleteId": 9594589, "closestDistance": 0.0, "closestPoint": {"point": {"lat": 45.869293, "lng": 8.629195}, "time": 1535877049.0}, "correlation": 0.0, "distance": 70234.4, "elapsedTime": 10883.0, "id": 1814124576, "name": "Morning Ride", "spatialCorrelation": 0.0, "startTime": 1535870455},
{"activityType": "Ride", "athleteId": 8228064, "closestDistance": 0.0, "closestPoint": {"point": {"lat": 45.90083, "lng": 8.782353}, "time": 1535875359.0}, "correlation": 0.0, "distance": 12507.6, "elapsedTime": 4406.0, "id": 1814129554, "name": "Giro mattutino", "spatialCorrelation": 0.0, "startTime": 1535872557},
{"activityType": "Ride", "athleteId": 326178, "closestDistance": 0.0, "closestPoint": {"point": {"lat": 45.818855, "lng": 8.825327}, "time": 1535879386.0}, "correlation": 0.0, "distance": 79213.6, "elapsedTime": 16422.0, "id": 1814140811, "name": "Con Mario a vedere il Mondiale sull'Ardena e poi all'arrivo", "spatialCorrelation": 0.0, "startTime": 1535867562},
{"activityType": "Ride", "athleteId": 5446028, "closestDistance": 0.0, "closestPoint": {"point": {"lat": 45.948742, "lng": 8.857823}, "time": 1535870182.0}, "correlation": 0.0, "distance": 100867.0, "elapsedTime": 26488.0, "id": 1814144122, "name": "Giro mattutino", "spatialCorrelation": 0.0, "startTime": 1535864379},
{"activityType": "Ride", "athleteId": 7354590, "closestDistance": 0.0, "closestPoint": {"point": {"lat": 45.819035, "lng": 8.823387}, "time": 1535879382.0}, "correlation": 0.0, "distance": 109978.0, "elapsedTime": 19494.0, "id": 1814144140, "name": "Giro mattutino", "spatialCorrelation": 0.0, "startTime": 1535867699},
{"activityType": "Ride", "athleteId": 2358957, "closestDistance": 0.0, "closestPoint": {"point": {"lat": 45.948936, "lng": 8.857629}, "time": 1535870221.0}, "correlation": 0.0, "distance": 101307.0, "elapsedTime": 26535.0, "id": 1814144197, "name": "Giro mattutino", "spatialCorrelation": 0.0, "startTime": 1535864344},
{"activityType": "Ride", "athleteId": 15557367, "closestDistance": 0.0, "closestPoint": {"point": {"lat": 45.840973, "lng": 8.705071}, "time": 1535877987.0}, "correlation": 0.0, "distance": 70560.2, "elapsedTime": 16364.0, "id": 1814176468, "name": "Giro mattutino", "spatialCorrelation": 0.0, "startTime": 1535868455},
{"activityType": "Ride", "athleteId": 17011057, "closestDistance": 0.0, "closestPoint": {"point": {"lat": 45.81883, "lng": 8.823701}, "time": 1535866205.0}, "correlation": 0.0, "distance": 126954.0, "elapsedTime": 16376.0, "id": 1814177490, "name": "Varese Grand Fondo 2018", "spatialCorrelation": 0.0, "startTime": 1535866205},
{"activityType": "Ride", "athleteId": 1148799, "closestDistance": 0.0, "closestPoint": {"point": {"lat": 45.819595, "lng": 8.829482}, "time": 1535866158.0}, "correlation": 0.0, "distance": 129735.0, "elapsedTime": 17159.0, "id": 1814177616, "name": "UCI GRAN FONDO VARESE", "spatialCorrelation": 0.0, "startTime": 1535864900},
{"activityType": "Ride", "athleteId": 11568074, "closestDistance": 0.0, "closestPoint": {"point": {"lat": 45.869278, "lng": 8.629231}, "time": 1535877090.0}, "correlation": 0.0, "distance": 60970.1, "elapsedTime": 14526.0, "id": 1814179458, "name": "This morning I first found S Michele and then Cuvignone - not bad two good climbs", "spatialCorrelation": 0.0, "startTime": 1535876737},
{"activityType": "Ride", "athleteId": 5881812, "closestDistance": 0.0, "closestPoint": {"point": {"lat": 45.819027, "lng": 8.823228}, "time": 1535866092.0}, "correlation": 0.0, "distance": 2304.1, "elapsedTime": 680.0, "id": 1814183441, "name": "Giro mattutino", "spatialCorrelation": 0.0, "startTime": 1535865659},
{"activityType": "Ride", "athleteId": 16862993, "closestDistance": 0.0, "closestPoint": {"point": {"lat": 45.876366, "lng": 8.630605}, "time": 1535877212.0}, "correlation": 0.0, "distance": 36975.2, "elapsedTime": 10267.0, "id": 1814184351, "name": "Giro mattutino", "spatialCorrelation": 0.0, "startTime": 1535868616},
{"activityType": "Ride", "athleteId": 3733146, "closestDistance": 0.0, "closestPoint": {"point": {"lat": 45.819366, "lng": 8.822336}, "time": 1535866183.0}, "correlation": 0.0, "distance": 129088.0, "elapsedTime": 15964.0, "id": 1814190281, "name": "GFWC", "spatialCorrelation": 0.0, "startTime": 1535866095},
{"activityType": "Ride", "athleteId": 20435697, "closestDistance": 0.0, "closestPoint": {"point": {"lat": 45.90539, "lng": 8.897334}, "time": 1535869125.0}, "correlation": 0.0, "distance": 115542.0, "elapsedTime": 16809.0, "id": 1814203951, "name": "Giro mattutino", "spatialCorrelation": 0.0, "startTime": 1535869122},
{"activityType": "Ride", "athleteId": 2223096, "closestDistance": 0.0, "closestPoint": {"point": {"lat": 45.817314, "lng": 8.825042}, "time": 1535879353.0}, "correlation": 0.0, "distance": 43296.9, "elapsedTime": 11433.0, "id": 1814206271, "name": "Finding Nicky after her puncture", "spatialCorrelation": 0.0, "startTime": 1535875785},
{"activityType": "Ride", "athleteId": 3555130, "closestDistance": 0.0, "closestPoint": {"point": {"lat": 45.819096, "lng": 8.822731}, "time": 1535866131.0}, "correlation": 0.0, "distance": 1870.0, "elapsedTime": 803.0, "id": 1814209420, "name": "Ride to the start", "spatialCorrelation": 0.0, "startTime": 1535865678},
{"activityType": "Ride", "athleteId": 13571937, "closestDistance": 0.0, "closestPoint": {"point": {"lat": 45.8774, "lng": 8.673614}, "time": 1535876499.0}, "correlation": 0.0, "distance": 54198.7, "elapsedTime": 12450.0, "id": 1814212478, "name": "Giro mattutino", "spatialCorrelation": 0.0, "startTime": 1535870756},
{"activityType": "Ride", "athleteId": 23909401, "closestDistance": 0.0, "closestPoint": {"point": {"lat": 45.995007, "lng": 8.728655}, "time": 1535872223.0}, "correlation": 0.0, "distance": 163818.0, "elapsedTime": 23224.0, "id": 1814257148, "name": "Ticino\ud83c\udde8\ud83c\udded \ud83d\udeb4\ud83c\udffc\u200d\u2640\ufe0f\ud83c\uddee\ud83c\uddf9\u2600\ufe0f\ud83c\udf34", "spatialCorrelation": 0.0, "startTime": 1535867525},
{"activityType": "Ride", "athleteId": 9820570, "closestDistance": 0.0, "closestPoint": {"point": {"lat": 45.820473, "lng": 8.825166}, "time": 1535879045.0}, "correlation": 0.0, "distance": 116231.0, "elapsedTime": 26043.0, "id": 1814260910, "name": "Erano 146 km", "spatialCorrelation": 0.0, "startTime": 1535867255},
{"activityType": "Ride", "athleteId": 21031, "closestDistance": 0.0, "closestPoint": {"point": {"lat": 45.81792, "lng": 8.825296}, "time": 1535879389.0}, "correlation": 0.0, "distance": 433.4, "elapsedTime": 329.0, "id": 1814283760, "name": "Lunch Ride", "spatialCorrelation": 0.0, "startTime": 1535879389},
{"activityType": "Ride", "athleteId": 565285, "closestDistance": 0.0, "closestPoint": {"point": {"lat": 45.815056, "lng": 8.829219}, "time": 1535866200.0}, "correlation": 0.0, "distance": 13717.0, "elapsedTime": 3311.0, "id": 1814295575, "name": "Morning Ride", "spatialCorrelation": 0.0, "startTime": 1535863751},
{"activityType": "Ride", "athleteId": 328705, "closestDistance": 0.0, "closestPoint": {"point": {"lat": 45.819157, "lng": 8.822716}, "time": 1535866203.0}, "correlation": 0.0, "distance": 5459.6, "elapsedTime": 3709.0, "id": 1814300216, "name": "Morning Ride", "spatialCorrelation": 0.0, "startTime": 1535865174},
{"activityType": "Ride", "athleteId": 437983, "closestDistance": 0.0, "closestPoint": {"point": {"lat": 45.819233, "lng": 8.825198}, "time": 1535879019.0}, "correlation": 0.0, "distance": 148425.0, "elapsedTime": 26133.0, "id": 1814303041, "name": "02.09.18 Varese UCI Masters as visitor", "spatialCorrelation": 0.0, "startTime": 1535867204},
{"activityType": "Ride", "athleteId": 10511560, "closestDistance": 0.0, "closestPoint": {"point": {"lat": 45.82749, "lng": 8.823894}, "time": 1535866085.0}, "correlation": 0.0, "distance": 4603.5, "elapsedTime": 1262.0, "id": 1814325561, "name": "Einrollen Gran Fondo Varese", "spatialCorrelation": 0.0, "startTime": 1535865952},
{"activityType": "Ride", "athleteId": 7918140, "closestDistance": 0.0, "closestPoint": {"point": {"lat": 45.817207, "lng": 8.826833}, "time": 1535879527.0}, "correlation": 0.0, "distance": 76282.8, "elapsedTime": 20253.0, "id": 1814337577, "name": "Doc, ci vuole pi\u00f9 rincorsa, non c'\u00e8 strada sufficiente per arrivare a 88 miglia.\nStrade? Dove andiamo noi non servono...strade!", "spatialCorrelation": 0.0, "startTime": 1535874624},
{"activityType": "Ride", "athleteId": 6179587, "closestDistance": 0.0, "closestPoint": {"point": {"lat": 45.81874, "lng": 8.823721}, "time": 1535866363.0}, "correlation": 0.0, "distance": 126958.0, "elapsedTime": 17182.0, "id": 1814357079, "name": "UCI GRANFONDO WORLD CHAMPIONSHIP VARESE 180 Msc", "spatialCorrelation": 0.0, "startTime": 1535866363},
{"activityType": "Ride", "athleteId": 28027546, "closestDistance": 0.0, "closestPoint": {"point": {"lat": 45.901157, "lng": 8.830173}, "time": 1535867095.0}, "correlation": 0.0, "distance": 75932.0, "elapsedTime": 26605.0, "id": 1814383621, "name": "Giro mattutino", "spatialCorrelation": 0.0, "startTime": 1535863177},
{"activityType": "Ride", "athleteId": 5265758, "closestDistance": 0.0, "closestPoint": {"point": {"lat": 45.819168, "lng": 8.822232}, "time": 1535866096.0}, "correlation": 0.0, "distance": 2324.6, "elapsedTime": 1112.0, "id": 1814399761, "name": "Morning Ride", "spatialCorrelation": 0.0, "startTime": 1535864995},
{"activityType": "Ride", "athleteId": 617349, "closestDistance": 0.0, "closestPoint": {"point": {"lat": 45.81889, "lng": 8.823963}, "time": 1535866200.0}, "correlation": 0.0, "distance": 29703.7, "elapsedTime": 29119.0, "id": 1814406729, "name": "Much ado about nothing today \ud83e\udd2a", "spatialCorrelation": 0.0, "startTime": 1535865014},
{"activityType": "Ride", "athleteId": 10620053, "closestDistance": 0.0, "closestPoint": {"point": {"lat": 45.818863, "lng": 8.823649}, "time": 1535866080.0}, "correlation": 0.0, "distance": 12618.0, "elapsedTime": 3442.0, "id": 1814417188, "name": "Morning Ride", "spatialCorrelation": 0.0, "startTime": 1535862672},
{"activityType": "Ride", "athleteId": 7354590, "closestDistance": 0.0, "closestPoint": {"point": {"lat": 45.818394, "lng": 8.825101}, "time": 1535879160.0}, "correlation": 0.0, "distance": 109027.0, "elapsedTime": 19485.0, "id": 1814453795, "name": "Giro mattutino", "spatialCorrelation": 0.0, "startTime": 1535867664},
{"activityType": "Ride", "athleteId": 4081275, "closestDistance": 0.0, "closestPoint": {"point": {"lat": 45.81702, "lng": 8.825907}, "time": 1535879268.0}, "correlation": 0.0, "distance": 1129.8, "elapsedTime": 2238.0, "id": 1814473460, "name": "D\u00e9crassage course", "spatialCorrelation": 0.0, "startTime": 1535879172},
{"activityType": "Ride", "athleteId": 2805945, "closestDistance": 0.0, "closestPoint": {"point": {"lat": 45.82875, "lng": 8.823766}, "time": 1535866168.0}, "correlation": 0.0, "distance": 66874.2, "elapsedTime": 12981.0, "id": 1814526335, "name": "Varese world \ud83c\udf0e championship part course with my Italian guide \ud83d\udeb5\u200d\u2640\ufe0f", "spatialCorrelation": 0.0, "startTime": 1535865969},
{"activityType": "Ride", "athleteId": 1977696, "closestDistance": 0.0, "closestPoint": {"point": {"lat": 45.816727, "lng": 8.827558}, "time": 1535866080.0}, "correlation": 0.0, "distance": 7427.9, "elapsedTime": 3616.0, "id": 1814533597, "name": "Morning Ride", "spatialCorrelation": 0.0, "startTime": 1535864237},
{"activityType": "Ride", "athleteId": 6108042, "closestDistance": 0.0, "closestPoint": {"point": {"lat": 45.818855, "lng": 8.82329}, "time": 1535866087.0}, "correlation": 0.0, "distance": 6773.0, "elapsedTime": 2408.0, "id": 1814538820, "name": "Giro mattutino", "spatialCorrelation": 0.0, "startTime": 1535864228},
{"activityType": "Ride", "athleteId": 20023065, "closestDistance": 0.0, "closestPoint": {"point": {"lat": 45.897316, "lng": 8.828069}, "time": 1535867692.0}, "correlation": 0.0, "distance": 18395.3, "elapsedTime": 2300.0, "id": 1814556118, "name": "Gran Fondo Worlds Champs Road Race : Punctured :(", "spatialCorrelation": 0.0, "startTime": 1535866585},
{"activityType": "Ride", "athleteId": 6370245, "closestDistance": 0.0, "closestPoint": {"point": {"lat": 45.89121, "lng": 8.754874}, "time": 1535875919.0}, "correlation": 0.0, "distance": 75265.7, "elapsedTime": 17339.0, "id": 1814564527, "name": "Giro mattutino", "spatialCorrelation": 0.0, "startTime": 1535870303},
{"activityType": "Ride", "athleteId": 22106582, "closestDistance": 0.0, "closestPoint": {"point": {"lat": 45.946423, "lng": 8.818364}, "time": 1535870866.0}, "correlation": 0.0, "distance": 43880.2, "elapsedTime": 18005.0, "id": 1814701751, "name": "Supporto ai campioni che correvano il mondiale", "spatialCorrelation": 0.0, "startTime": 1535863992},
{"activityType": "Ride", "athleteId": 14097517, "closestDistance": 0.0, "closestPoint": {"point": {"lat": 45.89038, "lng": 8.752923}, "time": 1535875916.0}, "correlation": 0.0, "distance": 46226.6, "elapsedTime": 10899.0, "id": 1814767364, "name": "Giro mattutino", "spatialCorrelation": 0.0, "startTime": 1535869382},
{"activityType": "Ride", "athleteId": 26785012, "closestDistance": 0.0, "closestPoint": {"point": {"lat": 45.88297, "lng": 8.719548}, "time": 1535876332.0}, "correlation": 0.0, "distance": 32365.9, "elapsedTime": 11961.0, "id": 1814880696, "name": "Giro mattutino", "spatialCorrelation": 0.0, "startTime": 1535870128},
{"activityType": "Ride", "athleteId": 26822465, "closestDistance": 0.0, "closestPoint": {"point": {"lat": 45.819286, "lng": 8.822195}, "time": 1535866287.0}, "correlation": 0.0, "distance": 28793.4, "elapsedTime": 9500.0, "id": 1814905261, "name": "Morning Ride", "spatialCorrelation": 0.0, "startTime": 1535864108},
{"activityType": "Ride", "athleteId": 509963, "closestDistance": 0.0, "closestPoint": {"point": {"lat": 45.819286, "lng": 8.822195}, "time": 1535866287.0}, "correlation": 0.0, "distance": 28793.4, "elapsedTime": 9500.0, "id": 1814905307, "name": "Out to feed station 3 for the NZ team", "spatialCorrelation": 0.0, "startTime": 1535864108},
{"activityType": "Ride", "athleteId": 1610650, "closestDistance": 0.0, "closestPoint": {"point": {"lat": 45.819794, "lng": 8.822319}, "time": 1535866094.0}, "correlation": 0.0, "distance": 4587.5, "elapsedTime": 1200.0, "id": 1814948696, "name": "Morning Ride", "spatialCorrelation": 0.0, "startTime": 1535865073},
{"activityType": "Ride", "athleteId": 12878572, "closestDistance": 0.0, "closestPoint": {"point": {"lat": 45.8247, "lng": 8.824696}, "time": 1535866418.0}, "correlation": 0.0, "distance": 1026.2, "elapsedTime": 583.0, "id": 1814951553, "name": "Morning Ride", "spatialCorrelation": 0.0, "startTime": 1535866418},
{"activityType": "Ride", "athleteId": 6318348, "closestDistance": 0.0, "closestPoint": {"point": {"lat": 45.818188, "lng": 8.825376}, "time": 1535866242.0}, "correlation": 0.0, "distance": 25758.3, "elapsedTime": 3015.0, "id": 1813924659, "name": "Saddest UCI racing!!! Back wheel damage! ", "spatialCorrelation": 0.129, "startTime": 1535866242},
{"activityType": "Ride", "athleteId": 1568521, "closestDistance": 0.0, "closestPoint": {"point": {"lat": 45.898926, "lng": 8.831156}, "time": 1535867564.0}, "correlation": 0.0, "distance": 25967.1, "elapsedTime": 3450.0, "id": 1813259237, "name": "World Champs. DNF. Chute. Gutted", "spatialCorrelation": 0.131, "startTime": 1535866627},
{"activityType": "Ride", "athleteId": 15069845, "closestDistance": 0.0, "closestPoint": {"point": {"lat": 0.0, "lng": 0.0}, "time": 0.0}, "correlation": 0.0, "distance": 31497.6, "elapsedTime": 4488.0, "id": 1813279946, "name": "Morning Ride", "spatialCorrelation": 0.133, "startTime": 1535866546},
{"activityType": "Ride", "athleteId": 8143361, "closestDistance": 0.0, "closestPoint": {"point": {"lat": 0.0, "lng": 0.0}, "time": 0.0}, "correlation": 0.0, "distance": 35368.0, "elapsedTime": 5357.0, "id": 1813894405, "name": "UCI Granfondo WM - Pech in der Abfahrt", "spatialCorrelation": 0.163, "startTime": 1535867061},
{"activityType": "Ride", "athleteId": 6131669, "closestDistance": 0.0, "closestPoint": {"point": {"lat": 0.0, "lng": 0.0}, "time": 0.0}, "correlation": 0.0, "distance": 37573.2, "elapsedTime": 4818.0, "id": 1813301749, "name": "Morning Ride", "spatialCorrelation": 0.189, "startTime": 1535866603},
{"activityType": "Ride", "athleteId": 305263, "closestDistance": 0.0, "closestPoint": {"point": {"lat": 0.0, "lng": 0.0}, "time": 0.0}, "correlation": 0.0, "distance": 47870.1, "elapsedTime": 7135.0, "id": 1813358554, "name": "UCI Grand Fondo World Championship / Snapped Chain...", "spatialCorrelation": 0.248, "startTime": 1535867436},
{"activityType": "Ride", "athleteId": 8077468, "closestDistance": 0.0, "closestPoint": {"point": {"lat": 0.0, "lng": 0.0}, "time": 0.0}, "correlation": 0.0, "distance": 53587.5, "elapsedTime": 6218.0, "id": 1813960335, "name": "MONDIALE UCI,FORATURA SCENDENDO DA MONTEGRINO,TUBOLARE DIFETTOSO", "spatialCorrelation": 0.269, "startTime": 1535867515},
{"activityType": "Ride", "athleteId": 2234928, "closestDistance": 0.0, "closestPoint": {"point": {"lat": 45.81868, "lng": 8.823973}, "time": 1535866211.0}, "correlation": 0.0, "distance": 55203.7, "elapsedTime": 7717.0, "id": 1813310416, "name": "Liten VM brems", "spatialCorrelation": 0.282, "startTime": 1535865030},
{"activityType": "Ride", "athleteId": 547719, "closestDistance": 0.0, "closestPoint": {"point": {"lat": 45.81868, "lng": 8.823973}, "time": 1535866211.0}, "correlation": 0.0, "distance": 47983.7, "elapsedTime": 6113.0, "id": 1813333030, "name": "Crashed. Thankfully nothing too serious, but I\u2019ve dicked my leg", "spatialCorrelation": 0.291, "startTime": 1535866218},
{"activityType": "Ride", "athleteId": 6882097, "closestDistance": 0.0, "closestPoint": {"point": {"lat": 45.969505, "lng": 8.733448}, "time": 1535873642.0}, "correlation": 0.0, "distance": 85012.3, "elapsedTime": 15676.0, "id": 1813746930, "name": "Giro mattutino", "spatialCorrelation": 0.311, "startTime": 1535867696},
{"activityType": "Ride", "athleteId": 7948209, "closestDistance": 0.0, "closestPoint": {"point": {"lat": 0.0, "lng": 0.0}, "time": 0.0}, "correlation": 0.0, "distance": 83107.1, "elapsedTime": 15230.0, "id": 1813692084, "name": "Giro mattutino", "spatialCorrelation": 0.331, "startTime": 1535867488},
{"activityType": "Ride", "athleteId": 1075924, "closestDistance": 0.0, "closestPoint": {"point": {"lat": 0.0, "lng": 0.0}, "time": 0.0}, "correlation": 0.0, "distance": 125942.0, "elapsedTime": 15217.0, "id": 1813723868, "name": "Varese 2018, UCI Gran Fondo", "spatialCorrelation": 0.423, "startTime": 1535867242},
{"activityType": "Ride", "athleteId": 12412523, "closestDistance": 0.0, "closestPoint": {"point": {"lat": 45.94916, "lng": 8.888313}, "time": 1535869325.0}, "correlation": 0.0, "distance": 84930.5, "elapsedTime": 13573.0, "id": 1813659716, "name": "Giro mattutino", "spatialCorrelation": 0.427, "startTime": 1535866290},
{"activityType": "Ride", "athleteId": 3353411, "closestDistance": 0.0, "closestPoint": {"point": {"lat": 0.0, "lng": 0.0}, "time": 0.0}, "correlation": 0.0, "distance": 125321.0, "elapsedTime": 15644.0, "id": 1814204903, "name": "UCI GF World Championships - Varese", "spatialCorrelation": 0.427, "startTime": 1535867125},
{"activityType": "Ride", "athleteId": 18834471, "closestDistance": 0.0, "closestPoint": {"point": {"lat": 0.0, "lng": 0.0}, "time": 0.0}, "correlation": 0.0, "distance": 125558.0, "elapsedTime": 13427.0, "id": 1814288233, "name": "Giro mattutino", "spatialCorrelation": 0.437, "startTime": 1535867197},
{"activityType": "Ride", "athleteId": 1182517, "closestDistance": 0.0, "closestPoint": {"point": {"lat": 0.0, "lng": 0.0}, "time": 0.0}, "correlation": 0.0, "distance": 126676.0, "elapsedTime": 13446.0, "id": 1813855808, "name": "Mondiale Master UCI - Varese ", "spatialCorrelation": 0.451, "startTime": 1535867887},
{"activityType": "Ride", "athleteId": 29799128, "closestDistance": 0.0, "closestPoint": {"point": {"lat": 0.0, "lng": 0.0}, "time": 0.0}, "correlation": 0.0, "distance": 127044.0, "elapsedTime": 14891.0, "id": 1813737052, "name": "WM in Varese. \u00dcberlebt!", "spatialCorrelation": 0.453, "startTime": 1535867489},
{"activityType": "Ride", "athleteId": 2445018, "closestDistance": 0.0, "closestPoint": {"point": {"lat": 0.0, "lng": 0.0}, "time": 0.0}, "correlation": 0.0, "distance": 125110.0, "elapsedTime": 13926.0, "id": 1813856412, "name": "Grand Fondo World Masters Varese", "spatialCorrelation": 0.454, "startTime": 1535867872},
{"activityType": "Ride", "athleteId": 9769591, "closestDistance": 0.0, "closestPoint": {"point": {"lat": 0.0, "lng": 0.0}, "time": 0.0}, "correlation": 0.0, "distance": 126147.0, "elapsedTime": 13888.0, "id": 1814356225, "name": "2018 Granfondo World Championships # 124\u00e8me \ud83c\udf0e et 11\u00e8me Fran\u00e7ais \ud83c\uddeb\ud83c\uddf7", "spatialCorrelation": 0.461, "startTime": 1535867908},
{"activityType": "Ride", "athleteId": 7538212, "closestDistance": 0.0, "closestPoint": {"point": {"lat": 0.0, "lng": 0.0}, "time": 0.0}, "correlation": 0.0, "distance": 127231.0, "elapsedTime": 14863.0, "id": 1814480403, "name": "Het WK zit erop met toch een wereldkampioen in het team ", "spatialCorrelation": 0.465, "startTime": 1535867281},
{"activityType": "Ride", "athleteId": 12882058, "closestDistance": 0.0, "closestPoint": {"point": {"lat": 0.0, "lng": 0.0}, "time": 0.0}, "correlation": 0.0, "distance": 75774.1, "elapsedTime": 8901.0, "id": 1814793805, "name": "Morning Ride", "spatialCorrelation": 0.469, "startTime": 1535867457},
{"activityType": "Ride", "athleteId": 1197997, "closestDistance": 0.0, "closestPoint": {"point": {"lat": 0.0, "lng": 0.0}, "time": 0.0}, "correlation": 0.0, "distance": 126706.0, "elapsedTime": 14531.0, "id": 1813756614, "name": "UCI world grand fondo", "spatialCorrelation": 0.477, "startTime": 1535867462},
{"activityType": "Ride", "athleteId": 6617760, "closestDistance": 0.0, "closestPoint": {"point": {"lat": 0.0, "lng": 0.0}, "time": 0.0}, "correlation": 0.0, "distance": 126247.0, "elapsedTime": 14722.0, "id": 1814017683, "name": "GF Campeonato UCI Varese 2018", "spatialCorrelation": 0.478, "startTime": 1535867456},
{"activityType": "Ride", "athleteId": 13334051, "closestDistance": 0.0, "closestPoint": {"point": {"lat": 0.0, "lng": 0.0}, "time": 0.0}, "correlation": 0.0, "distance": 126309.0, "elapsedTime": 14484.0, "id": 1813851434, "name": "Sortie \u00e0 v\u00e9lo matinale", "spatialCorrelation": 0.48, "startTime": 1535867580},
{"activityType": "Ride", "athleteId": 30090127, "closestDistance": 0.0, "closestPoint": {"point": {"lat": 0.0, "lng": 0.0}, "time": 0.0}, "correlation": 0.0, "distance": 126649.0, "elapsedTime": 14484.0, "id": 1813851306, "name": "Championnat du monde varesse Italie  ..bien pass\u00e9", "spatialCorrelation": 0.48, "startTime": 1535867580},
{"activityType": "Ride", "athleteId": 2701877, "closestDistance": 0.0, "closestPoint": {"point": {"lat": 0.0, "lng": 0.0}, "time": 0.0}, "correlation": 0.0, "distance": 127026.0, "elapsedTime": 15398.0, "id": 1814394414, "name": "Grandfondo Italy ", "spatialCorrelation": 0.48, "startTime": 1535867015},
{"activityType": "Ride", "athleteId": 1300050, "closestDistance": 0.0, "closestPoint": {"point": {"lat": 45.897408, "lng": 8.827961}, "time": 1535867696.0}, "correlation": 0.0, "distance": 126146.0, "elapsedTime": 15565.0, "id": 1813667252, "name": "Grand Fondo World Championships", "spatialCorrelation": 0.493, "startTime": 1535866614},
{"activityType": "Ride", "athleteId": 12993216, "closestDistance": 0.0, "closestPoint": {"point": {"lat": 0.0, "lng": 0.0}, "time": 0.0}, "correlation": 0.0, "distance": 127047.0, "elapsedTime": 13074.0, "id": 1814965463, "name": "Giro mattutino", "spatialCorrelation": 0.506, "startTime": 1535867852},
{"activityType": "Ride", "athleteId": 303942, "closestDistance": 0.0, "closestPoint": {"point": {"lat": 0.0, "lng": 0.0}, "time": 0.0}, "correlation": 0.0, "distance": 91850.1, "elapsedTime": 10787.0, "id": 1814018913, "name": "2018 GF world champs with a fkd Garmin. 3.53 time and 125 ks, climbing meters okay! Go figure?", "spatialCorrelation": 0.509, "startTime": 1535867461},
{"activityType": "Ride", "athleteId": 26089873, "closestDistance": 0.0, "closestPoint": {"point": {"lat": 0.0, "lng": 0.0}, "time": 0.0}, "correlation": 0.0, "distance": 127913.0, "elapsedTime": 13876.0, "id": 1813651842, "name": "Giro mattutino", "spatialCorrelation": 0.513, "startTime": 1535867897},
{"activityType": "Ride", "athleteId": 26089621, "closestDistance": 0.0, "closestPoint": {"point": {"lat": 0.0, "lng": 0.0}, "time": 0.0}, "correlation": 0.0, "distance": 127913.0, "elapsedTime": 13876.0, "id": 1813652092, "name": "Giro mattutino", "spatialCorrelation": 0.513, "startTime": 1535867897},
{"activityType": "Ride", "athleteId": 152112, "closestDistance": 0.0, "closestPoint": {"point": {"lat": 0.0, "lng": 0.0}, "time": 0.0}, "correlation": 0.0, "distance": 125814.0, "elapsedTime": 13892.0, "id": 1813657447, "name": "Grand fondo final varese", "spatialCorrelation": 0.519, "startTime": 1535867896},
{"activityType": "Ride", "athleteId": 575738, "closestDistance": 0.0, "closestPoint": {"point": {"lat": 0.0, "lng": 0.0}, "time": 0.0}, "correlation": 0.0, "distance": 125989.0, "elapsedTime": 14247.0, "id": 1813784201, "name": "UCI Grand Fondo worlds\ud83d\udc4d\ud83d\udc4d", "spatialCorrelation": 0.52, "startTime": 1535867835},
{"activityType": "Ride", "athleteId": 2410453, "closestDistance": 0.0, "closestPoint": {"point": {"lat": 0.0, "lng": 0.0}, "time": 0.0}, "correlation": 0.0, "distance": 125352.0, "elapsedTime": 15002.0, "id": 1813910102, "name": "UCI Masters World Championships", "spatialCorrelation": 0.52, "startTime": 1535867471},
{"activityType": "Ride", "athleteId": 2101351, "closestDistance": 0.0, "closestPoint": {"point": {"lat": 0.0, "lng": 0.0}, "time": 0.0}, "correlation": 0.0, "distance": 126279.0, "elapsedTime": 14690.0, "id": 1814008591, "name": "UCI GRAN FONDO WORLD CHAMPS- Varese, Italy. ", "spatialCorrelation": 0.52, "startTime": 1535867879},
{"activityType": "Ride", "athleteId": 15766379, "closestDistance": 0.0, "closestPoint": {"point": {"lat": 0.0, "lng": 0.0}, "time": 0.0}, "correlation": 0.0, "distance": 126262.0, "elapsedTime": 14672.0, "id": 1813721924, "name": "Gran Fondo World Championship. Team GB \ud83c\uddec\ud83c\udde7\ud83e\udd1b", "spatialCorrelation": 0.521, "startTime": 1535867489},
{"activityType": "Ride", "athleteId": 1837314, "closestDistance": 0.0, "closestPoint": {"point": {"lat": 0.0, "lng": 0.0}, "time": 0.0}, "correlation": 0.0, "distance": 125980.0, "elapsedTime": 14939.0, "id": 1813740714, "name": "UCIGFWorldChamps2k18Varese - 0711Broject2k18Ride", "spatialCorrelation": 0.521, "startTime": 1535867486},
{"activityType": "Ride", "athleteId": 9742791, "closestDistance": 0.0, "closestPoint": {"point": {"lat": 0.0, "lng": 0.0}, "time": 0.0}, "correlation": 0.0, "distance": 128535.0, "elapsedTime": 14664.0, "id": 1814918197, "name": "UCI Gran Fondo World Championships Varese", "spatialCorrelation": 0.522, "startTime": 1535867480},
{"activityType": "Ride", "athleteId": 793578, "closestDistance": 0.0, "closestPoint": {"point": {"lat": 0.0, "lng": 0.0}, "time": 0.0}, "correlation": 0.0, "distance": 126632.0, "elapsedTime": 13750.0, "id": 1813766822, "name": "RACE UCI master Worldchampionship Varese 102.", "spatialCorrelation": 0.522, "startTime": 1535867879},
{"activityType": "Ride", "athleteId": 10393052, "closestDistance": 0.0, "closestPoint": {"point": {"lat": 0.0, "lng": 0.0}, "time": 0.0}, "correlation": 0.0, "distance": 126824.0, "elapsedTime": 14835.0, "id": 1813672975, "name": "Morning Ride", "spatialCorrelation": 0.523, "startTime": 1535867383},
{"activityType": "Ride", "athleteId": 1637003, "closestDistance": 0.0, "closestPoint": {"point": {"lat": 0.0, "lng": 0.0}, "time": 0.0}, "correlation": 0.0, "distance": 125111.0, "elapsedTime": 12882.0, "id": 1814820409, "name": "Campeonato mundo masters 2018 - italia", "spatialCorrelation": 0.525, "startTime": 1535867614},
{"activityType": "Ride", "athleteId": 8393030, "closestDistance": 0.0, "closestPoint": {"point": {"lat": 45.94953, "lng": 8.852691}, "time": 1535870488.0}, "correlation": 0.0, "distance": 109434.0, "elapsedTime": 14545.0, "id": 1813581277, "name": "Giro mattutino", "spatialCorrelation": 0.525, "startTime": 1535865975},
{"activityType": "Ride", "athleteId": 12305576, "closestDistance": 0.0, "closestPoint": {"point": {"lat": 45.903786, "lng": 8.868089}, "time": 1535868478.0}, "correlation": 0.0, "distance": 107281.0, "elapsedTime": 14486.0, "id": 1813689698, "name": "Fahrt am Morgen", "spatialCorrelation": 0.526, "startTime": 1535867054},
{"activityType": "Ride", "athleteId": 683775, "closestDistance": 0.0, "closestPoint": {"point": {"lat": 0.0, "lng": 0.0}, "time": 0.0}, "correlation": 0.0, "distance": 126282.0, "elapsedTime": 13604.0, "id": 1813629177, "name": "Varese. Campeonato del mundo.", "spatialCorrelation": 0.527, "startTime": 1535867901},
{"activityType": "Ride", "athleteId": 4034082, "closestDistance": 0.0, "closestPoint": {"point": {"lat": 0.0, "lng": 0.0}, "time": 0.0}, "correlation": 0.0, "distance": 127042.0, "elapsedTime": 14797.0, "id": 1813678291, "name": "UCI Gran Fondo World Championship Varese 2018", "spatialCorrelation": 0.527, "startTime": 1535867470},
{"activityType": "Ride", "athleteId": 9333935, "closestDistance": 0.0, "closestPoint": {"point": {"lat": 0.0, "lng": 0.0}, "time": 0.0}, "correlation": 0.0, "distance": 126730.0, "elapsedTime": 13517.0, "id": 1813855623, "name": "Giro mattutino", "spatialCorrelation": 0.529, "startTime": 1535867414},
{"activityType": "Ride", "athleteId": 5275106, "closestDistance": 0.0, "closestPoint": {"point": {"lat": 0.0, "lng": 0.0}, "time": 0.0}, "correlation": 0.0, "distance": 125987.0, "elapsedTime": 14231.0, "id": 1813723079, "name": "Gran Fondo World Champs - Broken spoke at 34km \ud83d\ude22", "spatialCorrelation": 0.531, "startTime": 1535867483},
{"activityType": "Ride", "athleteId": 13658643, "closestDistance": 0.0, "closestPoint": {"point": {"lat": 0.0, "lng": 0.0}, "time": 0.0}, "correlation": 0.0, "distance": 126203.0, "elapsedTime": 13770.0, "id": 1813733433, "name": "Giro mattutino", "spatialCorrelation": 0.533, "startTime": 1535867852},
{"activityType": "Ride", "athleteId": 8945565, "closestDistance": 0.0, "closestPoint": {"point": {"lat": 0.0, "lng": 0.0}, "time": 0.0}, "correlation": 0.0, "distance": 125304.0, "elapsedTime": 13021.0, "id": 1813972419, "name": "Morning Ride", "spatialCorrelation": 0.54, "startTime": 1535867886},
{"activityType": "Ride", "athleteId": 3833612, "closestDistance": 0.0, "closestPoint": {"point": {"lat": 0.0, "lng": 0.0}, "time": 0.0}, "correlation": 0.0, "distance": 126073.0, "elapsedTime": 14920.0, "id": 1813682459, "name": "UCI Gran Fondo World Championships Varese ", "spatialCorrelation": 0.541, "startTime": 1535867484},
{"activityType": "Ride", "athleteId": 1331765, "closestDistance": 0.0, "closestPoint": {"point": {"lat": 0.0, "lng": 0.0}, "time": 0.0}, "correlation": 0.0, "distance": 126083.0, "elapsedTime": 13340.0, "id": 1813730318, "name": "#teamcyclesordello#DTswiss\ud83c\uddeb\ud83c\uddf7#teamEAFIT\ud83c\uddeb\ud83c\uddf7#vcr#wiliercentoair10#championnat du monde en attente de r\u00e9sultats niveau de malade \ud83d\ude2d\ud83d\ude2c", "spatialCorrelation": 0.543, "startTime": 1535867811},
{"activityType": "Ride", "athleteId": 977829, "closestDistance": 0.0, "closestPoint": {"point": {"lat": 0.0, "lng": 0.0}, "time": 0.0}, "correlation": 0.0, "distance": 125972.0, "elapsedTime": 13687.0, "id": 1814241549, "name": "UCI World championship Granfondo. ", "spatialCorrelation": 0.545, "startTime": 1535867849},
{"activityType": "Ride", "athleteId": 9942540, "closestDistance": 0.0, "closestPoint": {"point": {"lat": 0.0, "lng": 0.0}, "time": 0.0}, "correlation": 0.0, "distance": 125761.0, "elapsedTime": 13922.0, "id": 1814097981, "name": "Morning Ride", "spatialCorrelation": 0.545, "startTime": 1535867880},
{"activityType": "Ride", "athleteId": 408466, "closestDistance": 0.0, "closestPoint": {"point": {"lat": 0.0, "lng": 0.0}, "time": 0.0}, "correlation": 0.0, "distance": 126374.0, "elapsedTime": 13367.0, "id": 1813599215, "name": "Mondiale UCI", "spatialCorrelation": 0.546, "startTime": 1535867469},
{"activityType": "Ride", "athleteId": 10095294, "closestDistance": 0.0, "closestPoint": {"point": {"lat": 0.0, "lng": 0.0}, "time": 0.0}, "correlation": 0.0, "distance": 126463.0, "elapsedTime": 13883.0, "id": 1814496874, "name": "VM - Defekt gear og punktering \ud83d\ude29\ud83d\ude29\ud83d\ude29", "spatialCorrelation": 0.547, "startTime": 1535867883},
{"activityType": "Ride", "athleteId": 12695986, "closestDistance": 0.0, "closestPoint": {"point": {"lat": 0.0, "lng": 0.0}, "time": 0.0}, "correlation": 0.0, "distance": 127755.0, "elapsedTime": 13954.0, "id": 1814522548, "name": "WK Gran FONDO Varese", "spatialCorrelation": 0.548, "startTime": 1535867613},
{"activityType": "Ride", "athleteId": 1001227, "closestDistance": 0.0, "closestPoint": {"point": {"lat": 0.0, "lng": 0.0}, "time": 0.0}, "correlation": 0.0, "distance": 126080.0, "elapsedTime": 14603.0, "id": 1813672725, "name": "UCI World Amateur Road Race", "spatialCorrelation": 0.548, "startTime": 1535867485},
{"activityType": "Ride", "athleteId": 516547, "closestDistance": 0.0, "closestPoint": {"point": {"lat": 0.0, "lng": 0.0}, "time": 0.0}, "correlation": 0.0, "distance": 127179.0, "elapsedTime": 15183.0, "id": 1813901316, "name": "2018 UCI Granfondo World Championships Varese Italy", "spatialCorrelation": 0.548, "startTime": 1535867090},
{"activityType": "Ride", "athleteId": 9247900, "closestDistance": 0.0, "closestPoint": {"point": {"lat": 0.0, "lng": 0.0}, "time": 0.0}, "correlation": 0.0, "distance": 126012.0, "elapsedTime": 15908.0, "id": 1813765206, "name": "Varese - UCI Granfondo World Championship 2018", "spatialCorrelation": 0.549, "startTime": 1535867054},
{"activityType": "Ride", "athleteId": 26311864, "closestDistance": 0.0, "closestPoint": {"point": {"lat": 0.0, "lng": 0.0}, "time": 0.0}, "correlation": 0.0, "distance": 127518.0, "elapsedTime": 13997.0, "id": 1814321528, "name": "mondiali Granfondo UCI", "spatialCorrelation": 0.556, "startTime": 1535867903},
{"activityType": "Ride", "athleteId": 799277, "closestDistance": 0.0, "closestPoint": {"point": {"lat": 0.0, "lng": 0.0}, "time": 0.0}, "correlation": 0.0, "distance": 126692.0, "elapsedTime": 12957.0, "id": 1813591544, "name": "Morning Ride", "spatialCorrelation": 0.557, "startTime": 1535867871},
{"activityType": "Ride", "athleteId": 5642034, "closestDistance": 0.0, "closestPoint": {"point": {"lat": 0.0, "lng": 0.0}, "time": 0.0}, "correlation": 0.0, "distance": 126683.0, "elapsedTime": 15275.0, "id": 1813665786, "name": "UCI Amateur World Champs Gran Fondo!", "spatialCorrelation": 0.559, "startTime": 1535866629},
{"activityType": "Ride", "athleteId": 3491728, "closestDistance": 0.0, "closestPoint": {"point": {"lat": 45.8471, "lng": 8.826001}, "time": 1535866683.0}, "correlation": 0.0, "distance": 122540.0, "elapsedTime": 15638.0, "id": 1814182419, "name": "UCI World champs", "spatialCorrelation": 0.559, "startTime": 1535866560},
{"activityType": "Ride", "athleteId": 10385331, "closestDistance": 0.0, "closestPoint": {"point": {"lat": 0.0, "lng": 0.0}, "time": 0.0}, "correlation": 0.0, "distance": 127910.0, "elapsedTime": 13943.0, "id": 1814027339, "name": "2018 Granfondo World Championships Varese. Placed 150 in AG.", "spatialCorrelation": 0.563, "startTime": 1535867466},
{"activityType": "Ride", "athleteId": 3292744, "closestDistance": 0.0, "closestPoint": {"point": {"lat": 0.0, "lng": 0.0}, "time": 0.0}, "correlation": 0.0, "distance": 96572.3, "elapsedTime": 12112.0, "id": 1814105501, "name": "If you\u2019re going down, in flames is always best. Worlds can wait until next year", "spatialCorrelation": 0.566, "startTime": 1535867066},
{"activityType": "Ride", "athleteId": 11123162, "closestDistance": 0.0, "closestPoint": {"point": {"lat": 0.0, "lng": 0.0}, "time": 0.0}, "correlation": 0.0, "distance": 125731.0, "elapsedTime": 13791.0, "id": 1813673735, "name": "Giro mattutino", "spatialCorrelation": 0.566, "startTime": 1535867050},
{"activityType": "Ride", "athleteId": 1852618, "closestDistance": 0.0, "closestPoint": {"point": {"lat": 0.0, "lng": 0.0}, "time": 0.0}, "correlation": 0.0, "distance": 125731.0, "elapsedTime": 13791.0, "id": 1813673874, "name": "UCI WORLD CHAMPION GF Varese", "spatialCorrelation": 0.566, "startTime": 1535867050},
{"activityType": "Ride", "athleteId": 11203970, "closestDistance": 0.0, "closestPoint": {"point": {"lat": 45.825493, "lng": 8.82452}, "time": 1535866325.0}, "correlation": 0.0, "distance": 125268.0, "elapsedTime": 12756.0, "id": 1813901398, "name": "Uci Granfondo World Championship - Varese - 69\u00b0 cat.", "spatialCorrelation": 0.567, "startTime": 1535866273},
{"activityType": "Ride", "athleteId": 3906195, "closestDistance": 0.0, "closestPoint": {"point": {"lat": 0.0, "lng": 0.0}, "time": 0.0}, "correlation": 0.0, "distance": 126354.0, "elapsedTime": 14988.0, "id": 1814164062, "name": "UCI World Gran Fondo Camps. Brutal !", "spatialCorrelation": 0.57, "startTime": 1535867061},
{"activityType": "Ride", "athleteId": 2230412, "closestDistance": 0.0, "closestPoint": {"point": {"lat": 0.0, "lng": 0.0}, "time": 0.0}, "correlation": 0.0, "distance": 125416.0, "elapsedTime": 13738.0, "id": 1814860922, "name": "Championnat du monde \u00e0 Varese \ud83c\uddeb\ud83c\uddf7\ud83c\uddeb\ud83c\uddf7 70 eme/400 dur dur le parcour \ud83d\ude30", "spatialCorrelation": 0.571, "startTime": 1535867099},
{"activityType": "Ride", "athleteId": 11704099, "closestDistance": 0.0, "closestPoint": {"point": {"lat": 0.0, "lng": 0.0}, "time": 0.0}, "correlation": 0.0, "distance": 126832.0, "elapsedTime": 13284.0, "id": 1814074789, "name": "Giro mattutino", "spatialCorrelation": 0.571, "startTime": 1535867869},
{"activityType": "Ride", "athleteId": 166256, "closestDistance": 0.0, "closestPoint": {"point": {"lat": 45.897243, "lng": 8.828165}, "time": 1535867695.0}, "correlation": 0.0, "distance": 125605.0, "elapsedTime": 16457.0, "id": 1813729000, "name": "UCI Gran Fondo World Championships", "spatialCorrelation": 0.572, "startTime": 1535866620},
{"activityType": "Ride", "athleteId": 9358762, "closestDistance": 0.0, "closestPoint": {"point": {"lat": 0.0, "lng": 0.0}, "time": 0.0}, "correlation": 0.0, "distance": 125838.0, "elapsedTime": 14810.0, "id": 1814359451, "name": "Mondiale Varese 2018", "spatialCorrelation": 0.573, "startTime": 1535866764},
{"activityType": "Ride", "athleteId": 2813467, "closestDistance": 0.0, "closestPoint": {"point": {"lat": 0.0, "lng": 0.0}, "time": 0.0}, "correlation": 0.0, "distance": 126488.0, "elapsedTime": 15764.0, "id": 1813709649, "name": "UCI Grand Fondo World Finals: Varese, Italy", "spatialCorrelation": 0.573, "startTime": 1535867034},
{"activityType": "Ride", "athleteId": 2493741, "closestDistance": 0.0, "closestPoint": {"point": {"lat": 0.0, "lng": 0.0}, "time": 0.0}, "correlation": 0.0, "distance": 126447.0, "elapsedTime": 13661.0, "id": 1813663144, "name": "Morning Ride", "spatialCorrelation": 0.573, "startTime": 1535867862},
{"activityType": "Ride", "athleteId": 617004, "closestDistance": 0.0, "closestPoint": {"point": {"lat": 0.0, "lng": 0.0}, "time": 0.0}, "correlation": 0.0, "distance": 126264.0, "elapsedTime": 13669.0, "id": 1813786399, "name": "UWCT World Final - Varese", "spatialCorrelation": 0.574, "startTime": 1535867855},
{"activityType": "Ride", "athleteId": 18346892, "closestDistance": 0.0, "closestPoint": {"point": {"lat": 0.0, "lng": 0.0}, "time": 0.0}, "correlation": 0.0, "distance": 126645.0, "elapsedTime": 14796.0, "id": 1813650597, "name": "UCI World Championship Gran Fondo", "spatialCorrelation": 0.574, "startTime": 1535867067},
{"activityType": "Ride", "athleteId": 2476952, "closestDistance": 0.0, "closestPoint": {"point": {"lat": 0.0, "lng": 0.0}, "time": 0.0}, "correlation": 0.0, "distance": 126389.0, "elapsedTime": 14497.0, "id": 1814457088, "name": "UCI Varese", "spatialCorrelation": 0.574, "startTime": 1535867475},
{"activityType": "Ride", "athleteId": 13759006, "closestDistance": 0.0, "closestPoint": {"point": {"lat": 0.0, "lng": 0.0}, "time": 0.0}, "correlation": 0.0, "distance": 126472.0, "elapsedTime": 14981.0, "id": 1813949279, "name": "UCI WM Varese", "spatialCorrelation": 0.574, "startTime": 1535867455},
{"activityType": "Ride", "athleteId": 21276811, "closestDistance": 0.0, "closestPoint": {"point": {"lat": 0.0, "lng": 0.0}, "time": 0.0}, "correlation": 0.0, "distance": 126668.0, "elapsedTime": 15534.0, "id": 1814175138, "name": "UCI Gran Fondo world champs - cramped on last climb", "spatialCorrelation": 0.574, "startTime": 1535867061},
{"activityType": "Ride", "athleteId": 10463807, "closestDistance": 0.0, "closestPoint": {"point": {"lat": 0.0, "lng": 0.0}, "time": 0.0}, "correlation": 0.0, "distance": 109223.0, "elapsedTime": 26015.0, "id": 1814239147, "name": "Morning Ride UCI Gran Fondo World Championships Varese Italy . Brakuje ok 22km . Cie\u017cko by\u0142o ", "spatialCorrelation": 0.575, "startTime": 1535866614},
{"activityType": "Ride", "athleteId": 12989127, "closestDistance": 0.0, "closestPoint": {"point": {"lat": 45.84826, "lng": 8.825679}, "time": 1535866656.0}, "correlation": 0.0, "distance": 126716.0, "elapsedTime": 12493.0, "id": 1813783601, "name": "Uci Granfondo World series! Esperienza meravigliosa! 30 assoluto! ", "spatialCorrelation": 0.578, "startTime": 1535866031},
{"activityType": "Ride", "athleteId": 1671314, "closestDistance": 0.0, "closestPoint": {"point": {"lat": 0.0, "lng": 0.0}, "time": 0.0}, "correlation": 0.0, "distance": 127796.0, "elapsedTime": 13716.0, "id": 1814428287, "name": "Campionati del mondo Varese", "spatialCorrelation": 0.579, "startTime": 1535867565},